name,slug,site_type,lat,lng,country,has_image,wikipedia_url
"Druid's Altar four poster stone circle","druid-s-altar-four-poster-stone-circle","stone circle",54.0833,-2.07873,"United Kingdom",yes,""
"Rosa dos Ventos","rosa-dos-ventos","stone circle",37.00045556,-8.94770833,"Portugal",yes,""
"Cromeleque da Portela de Modos","cromeleque-da-portela-de-modos","stone circle",38.626804351,-8.024656295,"Portugal",yes,""
"Schiffssetzung von Össlöv","schiffssetzung-von-osslov","stone circle",56.87603,13.98025,"Sweden",yes,""
"Crugian Bach stone circle","crugian-bach-stone-circle","stone circle",52.249433,-3.5665551,"United Kingdom",no,""
"St Colmac Cottages Stone Circle","st-colmac-cottages-stone-circle","stone circle",55.854573,-5.1259719,"United Kingdom",yes,""
"Large regular stone circle 560m north east of Leaze","large-regular-stone-circle-560m-north-east-of-leaze","stone circle",50.5656,-4.63243,"United Kingdom",no,""
"Soussons Common stone circle","soussons-common-stone-circle","stone circle",50.5929,-3.87316,"United Kingdom",yes,""
"Cothiemuir Wood","cothiemuir-wood","stone circle",57.267351,-2.6364648,"United Kingdom",yes,""
"Large regular stone circle called the Trippet Stones","large-regular-stone-circle-called-the-trippet-stones","stone circle",50.545,-4.63918,"United Kingdom",no,""
"Fernworthy Circle","fernworthy-circle","stone circle",50.6414,-3.9035,"United Kingdom",yes,""
"Kerry Hill","kerry-hill","stone circle",52.466201,-3.2412907,"United Kingdom",no,""
"Rhos-y-Beddau Stone Circle, Avenue and Cairn","rhos-y-beddau-stone-circle-avenue-and-cairn","stone circle",52.86,-3.39,"United Kingdom",yes,""
"Craddock Moor stone circle and adjacent peat-stack platform 800m NNE of Trewalla Farm","craddock-moor-stone-circle-and-adjacent-peat-stack-platform-800m-nne-of-trewalla-farm","stone circle",50.52,-4.47185,"United Kingdom",no,""
"Monument to the Foresters","monument-to-the-foresters","stone circle",50.770294,4.403991,"Belgium",yes,""
"Stone circle and funerary cairn 440m south west of Great Knott, Lacra","stone-circle-and-funerary-cairn-440m-south-west-of-great-knott-lacra","stone circle",54.2175,-3.30621,"United Kingdom",yes,""
"Arkle Beck stone circle","arkle-beck-stone-circle","stone circle",54.4639,-2.06899,"United Kingdom",no,""
"Cromlec de Pins Rosers","cromlec-de-pins-rosers","stone circle",41.620858,2.362747,"Spain",yes,""
"Schiffssetzung bei Ugglarp","schiffssetzung-bei-ugglarp","stone circle",55.637317,13.413762,"Sweden",yes,""
"Sherberton stone circle 315m SSE of Little Sherberton","sherberton-stone-circle-315m-sse-of-little-sherberton","stone circle",50.5425,-3.92155,"United Kingdom",no,""
"Steintanz von Netzeband","steintanz-von-netzeband","stone circle",54.07331,13.7195,"Germany",yes,""
"Nant Croes-y-wernen stone circle","nant-croes-y-wernen-stone-circle","stone circle",52.940785,-3.3436594,"United Kingdom",no,""
"Grey Hill Stone Circle","grey-hill-stone-circle","stone circle",51.637959,-2.8137001,"United Kingdom",yes,""
"Gålrums grave field","galrums-grave-field","stone circle",57.3291,18.6573,"Sweden",yes,""
"Tynreich stone circle","tynreich-stone-circle","stone circle",56.66169,-3.6717902,"United Kingdom",yes,""
"Hampton stone circle","hampton-stone-circle","stone circle",50.6768,-2.57295,"United Kingdom",no,""
"Cerrig Arthur Stone Circle","cerrig-arthur-stone-circle","stone circle",52.750226,-4.0286928,"United Kingdom",yes,""
"Low Kingate concentric stone circle","low-kingate-concentric-stone-circle","stone circle",54.445,-2.90144,"United Kingdom",no,""
"Sunkenkirk Stone Circle, 230m south east of Swinside","sunkenkirk-stone-circle-230m-south-east-of-swinside","stone circle",54.2825,-3.27378,"United Kingdom",no,""
"Stone circle 410m SSW of Great Knott, Lacra","stone-circle-410m-ssw-of-great-knott-lacra","stone circle",54.2174,-3.30481,"United Kingdom",no,""
"Bryn Beddau Stone Circle","bryn-beddau-stone-circle","stone circle",53.06,-3.42,"United Kingdom",no,""
"Nant Tarw stone circles","nant-tarw-stone-circles","stone circle",51.918539,-3.7186972,"United Kingdom",yes,""
"Berrybrae","berrybrae","stone circle",57.604456,-1.9554923,"United Kingdom",yes,""
"Langdean stone circle","langdean-stone-circle","stone circle",51.3903,-1.83166,"United Kingdom",no,""
"Stone circle, defended settlement, Romano-British farmstead and field system, Roman camp and group of shielings immediately south of Greenlee Lough","stone-circle-defended-settlement-romano-british-farmstead-and-field-system-roman-camp-and-group-of-s","stone circle",55.0202,-2.35306,"United Kingdom",yes,""
"Large irregular stone circle and a round cairn on Dean Moor","large-irregular-stone-circle-and-a-round-cairn-on-dean-moor","stone circle",54.5872,-3.48717,"United Kingdom",no,""
"Lorfa stone circle","lorfa-stone-circle","stone circle",51.820271,-3.7627343,"United Kingdom",no,""
"Lled Croen-yr-Ych","lled-croen-yr-ych","stone circle",52.59,-3.61,"United Kingdom",no,""
"Stone circle and cairn 330m south of Little Hound Tor","stone-circle-and-cairn-330m-south-of-little-hound-tor","stone circle",50.69,-3.93708,"United Kingdom",yes,""
"Y Capel Stone Circle","y-capel-stone-circle","stone circle",52.589442,-3.4784808,"United Kingdom",no,""
"The Goodaver Stone Circle, 610m ESE of Tresibbet Farm","the-goodaver-stone-circle-610m-ese-of-tresibbet-farm","stone circle",50.5486,-4.52975,"United Kingdom",no,""
"Stone circle, Mossy Moor Ridge","stone-circle-mossy-moor-ridge","stone circle",54.0718,-1.95573,"United Kingdom",no,""
"Stone circle 200yds (180m) SE of Langthwaite Gill Plantation","stone-circle-200yds-180m-se-of-langthwaite-gill-plantation","stone circle",54.2146,-2.55451,"United Kingdom",yes,""
"Steinkreise am Schluchsee","steinkreise-am-schluchsee","stone circle",47.8,8.17666667,"Germany",yes,""
"Hengwm Stone Circle","hengwm-stone-circle","stone circle",52.771068,-4.052194,"United Kingdom",no,""
"Creigiau Eglwyseg Stone Circle","creigiau-eglwyseg-stone-circle","stone circle",52.997919,-3.1514564,"United Kingdom",no,""
"Hethpool stone circles","hethpool-stone-circles","stone circle",55.5441,-2.17165,"United Kingdom",no,""
"Knapperthaw stone circle","knapperthaw-stone-circle","stone circle",54.2487,-3.10648,"United Kingdom",no,""
"Stone circle on Badgworthy Lees","stone-circle-on-badgworthy-lees","stone circle",51.1884,-3.74065,"United Kingdom",no,""
"Skärholmen stone circle","skarholmen-stone-circle","stone circle",59.269206,17.89875,"Sweden",yes,""
"Stone Setting on Waun Llwyd","stone-setting-on-waun-llwyd","stone circle",51.904444444,-3.734166666,"United Kingdom",no,""
"Ffridd Newydd, Stone Circle c.600m NW of","ffridd-newydd-stone-circle-c-600m-nw-of","stone circle",52.502763,-3.9153466,"United Kingdom",no,""
"Cerrig Pryfaid","cerrig-pryfaid","stone circle",53.223695,-3.911916,"United Kingdom",yes,""
"Cwm Rhiwiau Stone Circle","cwm-rhiwiau-stone-circle","stone circle",52.864227,-3.3988256,"United Kingdom",no,""
"Stone circle, cairn alignment, cider millstone and boundary ditch 410m south east of Sourton Tors","stone-circle-cairn-alignment-cider-millstone-and-boundary-ditch-410m-south-east-of-sourton-tors","stone circle",50.6883,-4.05855,"United Kingdom",no,""
"Cefn Maen Amor stone circle","cefn-maen-amor-stone-circle","stone circle",53.244301,-3.8916125,"United Kingdom",no,""
"Grey Yauds stone circle","grey-yauds-stone-circle","stone circle",54.8307,-2.71006,"United Kingdom",no,""
"Gunnerkeld concentric stone circle","gunnerkeld-concentric-stone-circle","stone circle",54.5532,-2.66907,"United Kingdom",no,""
"Blaenau Stone Circle","blaenau-stone-circle","stone circle",52.029404,-3.1102126,"United Kingdom",yes,""
"Fernacre stone circle and two outlying stones","fernacre-stone-circle-and-two-outlying-stones","stone circle",50.5899,-4.62215,"United Kingdom",no,""
"Mayne stone circle (at Little Mayne Farm)","mayne-stone-circle-at-little-mayne-farm","stone circle",50.6825,-2.3932,"United Kingdom",no,""
"Large regular stone circle called Boscawen-Un with two outlying standing stones west of Boscawen Noon Farm","large-regular-stone-circle-called-boscawen-un-with-two-outlying-standing-stones-west-of-boscawen-noo","stone circle",50.0904,-5.61825,"United Kingdom",no,""
"Shap large regular stone circle","shap-large-regular-stone-circle","stone circle",54.5132,-2.66869,"United Kingdom",no,""
"Fancarl Top stone circle","fancarl-top-stone-circle","stone circle",54.0633,-1.90328,"United Kingdom",no,""
"Derreenataggart","derreenataggart","stone circle",51.653889,-9.928889,"Ireland",yes,""
"Stone circle  800m east of Wetheriggs Pottery","stone-circle-800m-east-of-wetheriggs-pottery","stone circle",54.6298,-2.67836,"United Kingdom",no,""
"Treen Common stone circle","treen-common-stone-circle","stone circle",50.1747,-5.5802,"United Kingdom",no,""
"Oddendale concentric stone circle","oddendale-concentric-stone-circle","stone circle",54.5099,-2.63179,"United Kingdom",yes,""
"Sandy Road stone circle","sandy-road-stone-circle","stone circle",56.422393,-3.4074284,"United Kingdom",yes,""
"Oshoro Stone Circle","oshoro-stone-circle","stone circle",43.199611,140.874861,"Japan",yes,""
"Nine Stanes","nine-stanes","stone circle",57.011267,-2.4572274,"United Kingdom",yes,""
"Stone circle, 380m east of King's Crags","stone-circle-380m-east-of-king-s-crags","stone circle",55.0349,-2.31109,"United Kingdom",yes,""
"The Louden Stone Circle, 950m ENE of Camperdown Farm","the-louden-stone-circle-950m-ene-of-camperdown-farm","stone circle",50.5852,-4.64004,"United Kingdom",yes,""
"Schiffssetzung Stenhed","schiffssetzung-stenhed","stone circle",55.53998889,14.15086667,"Sweden",yes,""
"Holašovické Stonehenge","holasovicke-stonehenge","stone circle",48.9664,14.2758,"Czech Republic",yes,""
"Stone circle on Summerhouse Hill","stone-circle-on-summerhouse-hill","stone circle",54.1627,-2.76652,"United Kingdom",yes,""
"Stone circle north east of Thackthwaite Beck","stone-circle-north-east-of-thackthwaite-beck","stone circle",54.3161,-2.01841,"United Kingdom",no,""
"Stone circle west of Great Knott, Lacra","stone-circle-west-of-great-knott-lacra","stone circle",54.2206,-3.30537,"United Kingdom",no,""
"Stone Circle and Associated Structures on Bryn y Gorlan","stone-circle-and-associated-structures-on-bryn-y-gorlan","stone circle",52.176301,-3.8304257,"United Kingdom",no,""
"Forvie Stone Circle","forvie-stone-circle","stone circle",57.309188,-1.985875,"United Kingdom",no,""
"Fridlevstad 16:3","fridlevstad-16-3","stone circle",56.292541,15.52508,"Sweden",no,""
"Edestad 54:1","edestad-54-1","stone circle",56.218187,15.364427,"Sweden",no,""
"Cairnfield and embanked stone circle 550m east of Barbrook Reservoir","cairnfield-and-embanked-stone-circle-550m-east-of-barbrook-reservoir","stone circle",53.2916,-1.575,"United Kingdom",yes,""
"Stone Circle 200m SW of Cerrig Cynant","stone-circle-200m-sw-of-cerrig-cynant","stone circle",52.082603,-3.7509294,"United Kingdom",no,""
"Stone circle 330m north west of Crookhill Farm","stone-circle-330m-north-west-of-crookhill-farm","stone circle",53.3805,-1.72379,"United Kingdom",no,""
"Aucheleffan, stone setting 550m NW of","aucheleffan-stone-setting-550m-nw-of","stone circle",55.477356,-5.2004895,"United Kingdom",yes,""
"Edestad 71:1","edestad-71-1","stone circle",56.200377,15.32595,"Sweden",no,""
"Glassel stone circle","glassel-stone-circle","stone circle",57.08669,-2.581045,"United Kingdom",yes,""
"A stone circle, standing stone, cairn, recumbent stone and stone alignment on Longash Common","a-stone-circle-standing-stone-cairn-recumbent-stone-and-stone-alignment-on-longash-common","stone circle",50.5533,-4.04314,"United Kingdom",no,""
"Balgarthno stone circle","balgarthno-stone-circle","stone circle",56.472184,-3.0513251,"United Kingdom",yes,""
"Fridlevstad 17:1","fridlevstad-17-1","stone circle",56.295489,15.519229,"Sweden",no,""
"Tyfos Stone Circle","tyfos-stone-circle","stone circle",52.937386,-3.4470152,"United Kingdom",no,""
"Torhamn 38:1","torhamn-38-1","stone circle",56.184361,15.956208,"Sweden",no,""
"Cultoon,stone circle 500m SW of","cultoon-stone-circle-500m-sw-of","stone circle",55.724634,-6.468042,"United Kingdom",yes,""
"Broomrigg A: large irregular stone circle and associated stone alignment in Broomrigg Plantation, 820m south east of Street Hous","broomrigg-a-large-irregular-stone-circle-and-associated-stone-alignment-in-broomrigg-plantation-820m","stone circle",54.8133,-2.70489,"United Kingdom",no,""
"Stoke Flat West prehistoric field system and stone circle","stoke-flat-west-prehistoric-field-system-and-stone-circle","stone circle",53.2854,-1.62664,"United Kingdom",yes,""
"Stone circle and cairnfield on Harland Moor, 375m south west of Park Farm","stone-circle-and-cairnfield-on-harland-moor-375m-south-west-of-park-farm","stone circle",54.3243,-0.963255,"United Kingdom",no,""
"Edestad 56:1","edestad-56-1","stone circle",56.197911,15.373688,"Sweden",no,""
"Mare and Foal stone circle, 400m north east of Milestone House","mare-and-foal-stone-circle-400m-north-east-of-milestone-house","stone circle",54.9908,-2.43076,"United Kingdom",yes,""
"Fridlevstad 16:1","fridlevstad-16-1","stone circle",56.292583,15.524804,"Sweden",no,""
"Cefn Llechen Stone Circle","cefn-llechen-stone-circle","stone circle",53.260023,-3.8792177,"United Kingdom",yes,""
"cromlech de l’Œillet","cromlech-de-l-illet","stone circle",48.878816666,-1.821238888,"France",yes,""
"Edestad 25:3","edestad-25-3","stone circle",56.208747,15.332351,"Sweden",no,""
"Fridlevstad 4:1","fridlevstad-4-1","stone circle",56.263708,15.524322,"Sweden",no,""
"Embanked stone circle on Eyam Moor, 340m south of Leam Hall Farm","embanked-stone-circle-on-eyam-moor-340m-south-of-leam-hall-farm","stone circle",53.3069,-1.65383,"United Kingdom",no,""
"Kamaishi Stone Circle","kamaishi-stone-circle","stone circle",39.921917,140.978833,"Japan",yes,""
"Augerum 32:1","augerum-32-1","stone circle",56.200114,15.65033,"Sweden",no,""
"Edestad 39:1","edestad-39-1","stone circle",56.208564,15.341022,"Sweden",no,""
"Ramdala 42:1","ramdala-42-1","stone circle",56.163582,15.757421,"Sweden",no,""
"Stone circle 650m south west of Lune Head Farm","stone-circle-650m-south-west-of-lune-head-farm","stone circle",54.5786,-2.23282,"United Kingdom",no,""
"Parkneuk stone circle","parkneuk-stone-circle","stone circle",56.648356944,-3.314408888,"United Kingdom",yes,""
"Stone circle, 960m north east of High Lees Farm","stone-circle-960m-north-east-of-high-lees-farm","stone circle",53.3572,-1.66926,"United Kingdom",yes,""
"Craighead of Badentoy","craighead-of-badentoy","stone circle",57.070416,-2.1471584,"United Kingdom",yes,""
"Stone circle 400m south west of Buttern Hill","stone-circle-400m-south-west-of-buttern-hill","stone circle",50.6802,-3.91305,"United Kingdom",yes,""
"Cerrig Duon","cerrig-duon","stone circle",51.872332,-3.6698546,"United Kingdom",yes,""
"Field system and stone circle on Rabbit Warren, 1150m south east of Park Farm","field-system-and-stone-circle-on-rabbit-warren-1150m-south-east-of-park-farm","stone circle",53.2122,-1.58113,"United Kingdom",yes,""
"Gammalstorp 77:3","gammalstorp-77-3","stone circle",56.172329,14.594175,"Sweden",no,""
"Large regular stone circle 240m ENE of Elva Plain","large-regular-stone-circle-240m-ene-of-elva-plain","stone circle",54.6738,-3.27773,"United Kingdom",no,""
"Stone Circle and Round Cairns, Hirnant","stone-circle-and-round-cairns-hirnant","stone circle",52.439261,-3.835173,"United Kingdom",no,""
"Ceffig Caerau Stone Circle","ceffig-caerau-stone-circle","stone circle",52.59,-3.62,"United Kingdom",no,""
"Nättraby 109:2","nattraby-109-2","stone circle",56.201176,15.500553,"Sweden",no,""
"Tving 103:1","tving-103-1","stone circle",56.290302,15.423632,"Sweden",no,""
"Cefn Llydan Stone Circle","cefn-llydan-stone-circle","stone circle",52.564432,-3.3923048,"United Kingdom",no,""
"Fridlevstad 16:2","fridlevstad-16-2","stone circle",56.292584,15.524972,"Sweden",no,""
"Gors Fawr stone circle","gors-fawr-stone-circle","stone circle",51.93152778,-4.71463889,"United Kingdom",yes,""
"Granish Cairn","granish-cairn","stone circle",57.21714,-3.8099799,"United Kingdom",yes,""
"Ramdala 42:2","ramdala-42-2","stone circle",56.163419,15.75745,"Sweden",no,""
"Stone Circle At Ngr Sj 2804 3635","stone-circle-at-ngr-sj-2804-3635","stone circle",52.91972945,-3.071710611,"United Kingdom",no,""
"Cylch Cerrig Penbedw","cylch-cerrig-penbedw","stone circle",53.201992,-3.2424812,"United Kingdom",no,""
"Jämjö 7:1","jamjo-7-1","stone circle",56.190004,15.814749,"Sweden",no,""
"Old Keig","old-keig","stone circle",57.26341,-2.6704827,"United Kingdom",yes,""
"Mull, Glengorm, stone circle","mull-glengorm-stone-circle","stone circle",56.635495,-6.185019,"United Kingdom",no,""
"Reenkilla stone circle","reenkilla-stone-circle","stone circle",51.760693,-9.785005,"Ireland",no,""
"Ferntower stone circle","ferntower-stone-circle","stone circle",56.382483,-3.824951,"United Kingdom",yes,""
"Stone circle on Ash Cabin Flat, 560m north east of Reservoir Cottages","stone-circle-on-ash-cabin-flat-560m-north-east-of-reservoir-cottages","stone circle",53.3724,-1.59669,"United Kingdom",no,""
"The Seven Stones","the-seven-stones","stone circle",50.664048,-3.312091,"United Kingdom",yes,""
"Bryn Derwydd stone circle","bryn-derwydd-stone-circle","stone circle",53.257308,-3.9018564,"United Kingdom",no,""
"Llecheiddior Stone Circle","llecheiddior-stone-circle","stone circle",52.775431,-4.059813,"United Kingdom",no,""
"Endre 35:1","endre-35-1","stone circle",57.622307,18.386793,"Sweden",yes,""
"Eskelhem 30:1","eskelhem-30-1","stone circle",57.509297,18.209406,"Sweden",no,""
"Borgholm 1:1","borgholm-1-1","stone circle",56.874674,16.673961,"Sweden",yes,""
"Kalmar 10:3","kalmar-10-3","stone circle",56.680604,16.318543,"Sweden",yes,""
"Kalmar 10:4","kalmar-10-4","stone circle",56.680565,16.318738,"Sweden",yes,""
"Gräberfeld_Alnaberget","graberfeld-alnaberget","stone circle",55.561645,14.132543,"Sweden",yes,""
"Larv 115:4","larv-115-4","stone circle",58.174437,13.22746,"Sweden",no,""
"Steinkreis von Lellingens","steinkreis-von-lellingens","stone circle",58.145625,13.344076,"Sweden",yes,""
"Cavaglià stone circle","cavaglia-stone-circle","stone circle",45.4091,8.0953,"Italy",yes,""
"Domarring von Slaka","domarring-von-slaka","stone circle",58.368086,15.560023,"Sweden",yes,""
"stone circle 280m SSW of Strontoiller","stone-circle-280m-ssw-of-strontoiller","stone circle",56.407947,-5.3943841,"United Kingdom",no,""
"ring cairn and stone circle 600m NNE of Mains of Daviot Farm","ring-cairn-and-stone-circle-600m-nne-of-mains-of-daviot-farm","stone circle",57.443194,-4.1220469,"United Kingdom",no,""
"stone circle & standing stones 270m to 425m ENE of Bandirran","stone-circle-standing-stones-270m-to-425m-ene-of-bandirran","stone circle",56.464439,-3.2851626,"United Kingdom",no,""
"stone circle 80m NNE of Nether Wheedlemont","stone-circle-80m-nne-of-nether-wheedlemont","stone circle",57.327048,-2.8659004,"United Kingdom",no,""
"Golspie-Lairg Road,stone circle 920m NW of Mound Junction","golspie-lairg-road-stone-circle-920m-nw-of-mound-junction","stone circle",57.963977,-4.0822124,"United Kingdom",no,""
"Castle Fraser,stone circle 775m W of & standing stones 550m W of","castle-fraser-stone-circle-775m-w-of-standing-stones-550m-w-of","stone circle",57.202711,-2.4733465,"United Kingdom",yes,""
"Dromagorteen Stone Circle","dromagorteen-stone-circle","stone circle",51.830278,-9.510833,"Ireland",no,""
"stone circle 450m WSW of Blackfaulds","stone-circle-450m-wsw-of-blackfaulds","stone circle",56.469297,-3.3953336,"United Kingdom",no,""
"Seven Brethren, stone circle, Whiteholme Rig","seven-brethren-stone-circle-whiteholme-rig","stone circle",55.132215,-3.2292238,"United Kingdom",no,""
"Torbreck, stone circle SW of","torbreck-stone-circle-sw-of","stone circle",57.433486,-4.2607144,"United Kingdom",no,""
"Park Gate stone circle","park-gate-stone-circle","stone circle",53.212943,-1.581461,"United Kingdom",no,""
"stone circle 750m NNE of Colen","stone-circle-750m-nne-of-colen","stone circle",56.464191,-3.4450062,"United Kingdom",no,""
"Leys of Marlee stone circle","leys-of-marlee-stone-circle","stone circle",56.579321,-3.3691209,"United Kingdom",yes,""
"stone circle 380m ENE of Blindwells","stone-circle-380m-ene-of-blindwells","stone circle",56.465867,-3.4219891,"United Kingdom",no,""
"stone circle 275m NNE of Auchlee","stone-circle-275m-nne-of-auchlee","stone circle",57.064421,-2.1773929,"United Kingdom",no,""
"stone circle 65m N of Deer Park","stone-circle-65m-n-of-deer-park","stone circle",57.230421,-2.5260597,"United Kingdom",no,""
"Parkneuk stone circles","parkneuk-stone-circles","stone circle",56.64742,-3.3147028,"United Kingdom",yes,""
"Old Harestanes,stone circle 180m NE of","old-harestanes-stone-circle-180m-ne-of","stone circle",55.68446,-3.3946702,"United Kingdom",yes,""
"Acharn Falls stone circle","acharn-falls-stone-circle","stone circle",56.558161,-4.0063938,"United Kingdom",no,""
"Fingal's Limpet Hammers,standing stones,Lower Kilchattan, Colonsay","fingal-s-limpet-hammers-standing-stones-lower-kilchattan-colonsay","stone circle",56.075079,-6.2326651,"United Kingdom",yes,""
"River Shin,stone circle on W bank of,S of Lairg","river-shin-stone-circle-on-w-bank-of-s-of-lairg","stone circle",58.010879,-4.4011721,"United Kingdom",no,""
"stone circle 550m ESE of Eslie","stone-circle-550m-ese-of-eslie","stone circle",57.019715,-2.4586652,"United Kingdom",no,""
"stone circle 380m W of Raich","stone-circle-380m-w-of-raich","stone circle",57.481481,-2.6374506,"United Kingdom",no,""
"Domhög","domhog","stone circle",56.279476,12.54191,"Sweden",no,""
"Green Gates stone circle, 320m ESE of Faskally Cottages","green-gates-stone-circle-320m-ese-of-faskally-cottages","stone circle",56.708312,-3.7491521,"United Kingdom",no,""
"standing stone 250m SE of Stonefield","standing-stone-250m-se-of-stonefield","stone circle",56.403821,-3.8608169,"United Kingdom",no,""
"Loanend,stone circle,200m N of","loanend-stone-circle-200m-n-of","stone circle",57.306814,-2.6573633,"United Kingdom",no,""
"stone circle 50m WNW of Druidstone","stone-circle-50m-wnw-of-druidstone","stone circle",57.288795,-2.6398378,"United Kingdom",no,""
"Arn Hill,stone circle,Rothiemay Station","arn-hill-stone-circle-rothiemay-station","stone circle",57.498555,-2.7830438,"United Kingdom",no,""
"Meikle Findowie, stone circle 460m S of, Strath Braan","meikle-findowie-stone-circle-460m-s-of-strath-braan","stone circle",56.528607,-3.6937732,"United Kingdom",no,""
"Whitehill, stone circle, Bogmore Wood","whitehill-stone-circle-bogmore-wood","stone circle",57.21092,-2.5922673,"United Kingdom",yes,""
"stone circle 350m WNW of Carse Farm","stone-circle-350m-wnw-of-carse-farm","stone circle",56.612783,-3.9524178,"United Kingdom",no,""
"stone circle 950m NNE of Achinduich","stone-circle-950m-nne-of-achinduich","stone circle",57.974261,-4.3946454,"United Kingdom",no,""
"Steinkreis von Gortanacra","steinkreis-von-gortanacra","stone circle",51.927558,-9.157142,"Ireland",no,""
"Little Hartfell, stone circle 1010m NNW of Whitcastles Cottage","little-hartfell-stone-circle-1010m-nnw-of-whitcastles-cottage","stone circle",55.18068,-3.2202881,"United Kingdom",no,""
"stone circle 250m S of Yadlee","stone-circle-250m-s-of-yadlee","stone circle",55.897778,-2.5548267,"United Kingdom",no,""
"Machium's Stone Circle","machium-s-stone-circle","stone circle",56.534877,-4.144681,"United Kingdom",no,""
"Auchmachar,stone circle","auchmachar-stone-circle","stone circle",57.542472,-2.0877024,"United Kingdom",no,""
"Ardlair, stone circle 450m SW of","ardlair-stone-circle-450m-sw-of","stone circle",57.339789,-2.7447066,"United Kingdom",yes,""
"Broomend, henge, standing stones and symbol stone","broomend-henge-standing-stones-and-symbol-stone","stone circle",57.266648,-2.3673257,"United Kingdom",yes,""
"stone circle 1600m ENE of Balmuick","stone-circle-1600m-ene-of-balmuick","stone circle",56.402896,-3.9723656,"United Kingdom",no,""
"stone setting 200m NE of Ardilistry","stone-setting-200m-ne-of-ardilistry","stone circle",55.668738,-6.0683639,"United Kingdom",no,""
"Steinkreis von Bentstreek","steinkreis-von-bentstreek","stone circle",53.405712,7.819932,"Germany",no,""
"Hare Stone,stone circle 480m NW of Feith-Hill","hare-stone-stone-circle-480m-nw-of-feith-hill","stone circle",57.483452,-2.561132,"United Kingdom",no,""
"Corogle, standing stones and stone circle 950m WNW of Corriehead","corogle-standing-stones-and-stone-circle-950m-wnw-of-corriehead","stone circle",56.73008,-3.0651829,"United Kingdom",no,""
"Brisworthy Circle","brisworthy-circle","stone circle",50.471613,-4.024105,"United Kingdom",no,""
"stone circle 120m NNE of Auchlee Cottage","stone-circle-120m-nne-of-auchlee-cottage","stone circle",57.06286,-2.1823486,"United Kingdom",no,""
"stone circle 635m WSW of Ord","stone-circle-635m-wsw-of-ord","stone circle",57.330352,-2.8609123,"United Kingdom",no,""
"stone circle 650m ENE of East Drimmie","stone-circle-650m-ene-of-east-drimmie","stone circle",56.635177,-3.3304826,"United Kingdom",no,""
"stone circle 600m NW of Claughreid","stone-circle-600m-nw-of-claughreid","stone circle",54.876781,-4.3117204,"United Kingdom",no,""
"Bridge of Broubster, stone circle 700m ENE of Broubster Village","bridge-of-broubster-stone-circle-700m-ene-of-broubster-village","stone circle",58.516981,-3.6407496,"United Kingdom",no,""
"Brownies Knowe, stone circle & cup-marked stone 400m WNW of Rosemount","brownies-knowe-stone-circle-cup-marked-stone-400m-wnw-of-rosemount","stone circle",56.462963,-3.3637453,"United Kingdom",no,""
"Stonehead","stonehead","stone circle",57.3471,-2.6646634,"United Kingdom",yes,""
"Kinnell Park,stone circle,Killin","kinnell-park-stone-circle-killin","stone circle",56.465827,-4.3112582,"United Kingdom",yes,""
"Ödestugu 2:2","odestugu-2-2","stone circle",57.634853,14.317735,"Sweden",no,""
"Cairn Ley, cairn, Glaschul Hill","cairn-ley-cairn-glaschul-hill","stone circle",57.219342,-2.8936457,"United Kingdom",no,""
"Netherton,standing stones & stone circle","netherton-standing-stones-stone-circle","stone circle",57.604947,-1.9291532,"United Kingdom",no,""
"Dunbeacon stone circle","dunbeacon-stone-circle","stone circle",51.595722,-9.549079,"Ireland",no,""
"stone circle 150m NE of Corrydown","stone-circle-150m-ne-of-corrydown","stone circle",57.489467,-2.4906975,"United Kingdom",no,""
"Knockawaddra","knockawaddra","stone circle",51.657731,-9.066896,"Ireland",no,""
"Cloghboola Beg","cloghboola-beg","stone circle",52.015556,-9.0125,"Ireland",no,""
"Standing Stones of Glenterrow","standing-stones-of-glenterrow","stone circle",54.922757,-4.8955277,"United Kingdom",no,""
"Newcraig Stone Circle","newcraig-stone-circle","stone circle",57.356763,-2.4244865,"United Kingdom",no,""
"stone circle 120m NNE of Cairnfauld","stone-circle-120m-nne-of-cairnfauld","stone circle",57.037104,-2.4077826,"United Kingdom",no,""
"Druim Dubh,stone circle","druim-dubh-stone-circle","stone circle",58.18572,-6.4548514,"United Kingdom",no,""
"Lamlash Road, stone circle","lamlash-road-stone-circle","stone circle",55.553992,-5.1424878,"United Kingdom",no,""
"Loudon Wood stone circle","loudon-wood-stone-circle","stone circle",57.53776,-2.0667125,"United Kingdom",yes,""
"Dyffryn Syfynwy","dyffryn-syfynwy","stone circle",51.92088,-4.8239,"United Kingdom",no,""
"Inschfield stone circle","inschfield-stone-circle","stone circle",57.35312,-2.6277447,"United Kingdom",yes,"https://en.wikipedia.org/wiki/Inschfield_stone_circle"
"Moel Tŷ Uchaf stone circle","moel-ty-uchaf-stone-circle","stone circle",52.923175,-3.4056343,"United Kingdom",yes,"https://en.wikipedia.org/wiki/Moel_T%C5%B7_Uchaf"
"Haltadans","haltadans","stone circle",60.610226,-0.86555427,"United Kingdom",yes,"https://en.wikipedia.org/wiki/Haltadans"
"Stone circles of Junapani","stone-circles-of-junapani","stone circle",21.19856271,78.99967083,"India",yes,"https://en.wikipedia.org/wiki/Stone_circles_of_Junapani"
"Greycroft stone circle","greycroft-stone-circle","stone circle",54.4076,-3.49079,"United Kingdom",no,"https://en.wikipedia.org/wiki/Grey_Croft_stone_circle"
"Bocan stone circle","bocan-stone-circle","stone circle",55.27222222,-7.14805556,"Ireland",yes,"https://en.wikipedia.org/wiki/Bocan_Stone_Circle"
"Torhouse","torhouse","stone circle",54.8775,-4.52264,"United Kingdom",yes,"https://en.wikipedia.org/wiki/Torhouse"
"Sunhoney","sunhoney","stone circle",57.14132,-2.471108,"United Kingdom",yes,"https://en.wikipedia.org/wiki/Sunhoney"
"Machrie Moor Stone Circles","machrie-moor-stone-circles","stone circle",55.54089,-5.31326,"United Kingdom",yes,"https://en.wikipedia.org/wiki/Machrie_Moor_Stone_Circles"
"Yubunezawa Stone Circle","yubunezawa-stone-circle","stone circle",39.781165,141.097526,"Japan",yes,"https://en.wikipedia.org/wiki/Yubunezawa_Stone_Circle"
"Long Meg and Her Daughters","long-meg-and-her-daughters","stone circle",54.7284,-2.66935,"United Kingdom",yes,"https://en.wikipedia.org/wiki/Long_Meg_and_Her_Daughters"
"Duddo Five Stones","duddo-five-stones","stone circle",55.6868,-2.11198,"United Kingdom",yes,"https://en.wikipedia.org/wiki/Duddo_Five_Stones"
"Cromeleque de Vale de Maria do Meio","cromeleque-de-vale-de-maria-do-meio","stone circle",38.622527,-8.008355,"Portugal",yes,"https://en.wikipedia.org/wiki/Vale_Maria_do_Meio_Cromlech"
"Barbrook One","barbrook-one","stone circle",53.2765,-1.5837,"United Kingdom",yes,"https://en.wikipedia.org/wiki/Barbrook_One"
"Ring of Brodgar","ring-of-brodgar","stone circle",59.0014818,-3.2297227,"United Kingdom",yes,"https://en.wikipedia.org/wiki/Ring_of_Brodgar"
"Isedōtai Site","isedotai-site","stone circle",40.201111,140.348056,"Japan",yes,"https://en.wikipedia.org/wiki/Ised%C5%8Dtai_Ruins"
"Girdle Stanes","girdle-stanes","stone circle",55.253888,-3.1759771,"United Kingdom",yes,"https://en.wikipedia.org/wiki/Girdle_Stanes"
"Waun Mawn Possible Stone Circle","waun-mawn-possible-stone-circle","stone circle",51.971623,-4.7909215,"United Kingdom",no,""
"Megalithic Stone Circles","megalithic-stone-circles","stone circle",12.0368276,79.65106843,"India",no,""
"Stone Circle, Carreg Wen Fawr y Rugos","stone-circle-carreg-wen-fawr-y-rugos","stone circle",51.849306,-3.2629913,"United Kingdom",no,""
"stone circle 240m NNE of Pitchroy","stone-circle-240m-nne-of-pitchroy","stone circle",57.426938,-3.3702116,"United Kingdom",yes,""
"stone circle 300m W of Upperthird","stone-circle-300m-w-of-upperthird","stone circle",57.443701,-2.5389315,"United Kingdom",no,""
"Siebenrichtersteine","siebenrichtersteine","stone circle",49.39509,10.75107,"Germany",yes,""
"Clune Wood","clune-wood","stone circle",57.045167,-2.340139,"United Kingdom",yes,""
"Backhill of Drachlaw, stone circle","backhill-of-drachlaw-stone-circle","stone circle",57.506013,-2.5474433,"United Kingdom",no,""
"Penmaenmawr Stone Circle, near Driuds Ring","penmaenmawr-stone-circle-near-driuds-ring","stone circle",53.254484,-3.9126146,"United Kingdom",no,""
"Hatton of Ardoyne, stone circle 350m SE of","hatton-of-ardoyne-stone-circle-350m-se-of","stone circle",57.330127,-2.5664151,"United Kingdom",yes,""
"Druim Baile Fuir, stone circle, cairns, hut circles and enclosure","druim-baile-fuir-stone-circle-cairns-hut-circles-and-enclosure","stone circle",57.991488,-4.4413104,"United Kingdom",no,""
"Mynydd Illtud Common Stone Circle","mynydd-illtud-common-stone-circle","stone circle",51.93141,-3.4780873,"United Kingdom",no,""
"Fairy Glen","fairy-glen","stone circle",57.58233,-6.32485,"United Kingdom",yes,""
"Druidsfield stone circle, Montgarrie","druidsfield-stone-circle-montgarrie","stone circle",57.248277,-2.699507,"United Kingdom",no,""
"Ardgroom stone circle","ardgroom-stone-circle","stone circle",51.73587,-9.87006,"Ireland",yes,""
"Drummore Farm,stone circle","drummore-farm-stone-circle","stone circle",54.79142,-4.0414073,"United Kingdom",no,""
"Stone Circle","stone-circle","stone circle",20.48233314,79.96376138,"India",no,""
"Penmaenmawr Stone Circle, D","penmaenmawr-stone-circle-d","stone circle",53.252974,-3.9170444,"United Kingdom",no,""
"Learable Hill,stone rows,circles,cross-marked stone & settlements","learable-hill-stone-rows-circles-cross-marked-stone-settlements","stone circle",58.189328,-3.885899,"United Kingdom",no,""
"Clach Stei Lin stone circle and enclosure","clach-stei-lin-stone-circle-and-enclosure","stone circle",58.401627,-6.4572379,"United Kingdom",no,""
"High Bridestones","high-bridestones","stone circle",54.429999,-0.691241,"United Kingdom",no,""
"Cerrig Bwlch y Fedw, Stone Circle","cerrig-bwlch-y-fedw-stone-circle","stone circle",52.914497,-3.4012931,"United Kingdom",no,""
"North Burreldales,stone circle","north-burreldales-stone-circle","stone circle",57.583118,-2.5436678,"United Kingdom",no,""
"Tuach Hill, stone circle and enclosure 130m SW of Gallow Top","tuach-hill-stone-circle-and-enclosure-130m-sw-of-gallow-top","stone circle",57.229391,-2.3400565,"United Kingdom",no,""
"Steinkreis von Inchireagh","steinkreis-von-inchireagh","stone circle",51.75469,-9.173736,"Ireland",no,""
"Tal-y-Braich, Stone Circles","tal-y-braich-stone-circles","stone circle",53.128591,-3.9366131,"United Kingdom",no,""
"Candle Stane, stone circle 380m E of Coldhome","candle-stane-stone-circle-380m-e-of-coldhome","stone circle",57.358455,-2.6679603,"United Kingdom",no,""
"Megalithic Cairns and Stone Circles","megalithic-cairns-and-stone-circles","stone circle",12.0210821,79.67516251,"India",no,""
"Crug Siarls, Stone Circle","crug-siarls-stone-circle","stone circle",52.117679,-3.9006742,"United Kingdom",no,""
"stone circle 200m SSW of North Strone","stone-circle-200m-ssw-of-north-strone","stone circle",57.213944,-2.6896682,"United Kingdom",no,""
"Nishizakiyama Stone Circle","nishizakiyama-stone-circle","stone circle",43.19026,140.846562,"Japan",yes,""
"stone circle 575m NNW of Mains of Hatton","stone-circle-575m-nnw-of-mains-of-hatton","stone circle",57.472137,-2.5028864,"United Kingdom",no,""
"Stone Circle, Cefn Coch","stone-circle-cefn-coch","stone circle",53.253426,-3.9224613,"United Kingdom",no,""
"Cnoc an Liath-Bhaid,stone circle 880m ENE of Braegrudie,Strath Brora","cnoc-an-liath-bhaid-stone-circle-880m-ene-of-braegrudie-strath-brora","stone circle",58.062341,-4.1575918,"United Kingdom",no,""
"Corrstone Wood, stone circle","corrstone-wood-stone-circle","stone circle",57.332094,-2.8151594,"United Kingdom",no,""
"Rullion Green,stone circle","rullion-green-stone-circle","stone circle",55.84608,-3.2368564,"United Kingdom",no,""
"Penmaenmawr Stone Circle, G","penmaenmawr-stone-circle-g","stone circle",53.252974,-3.9170444,"United Kingdom",no,""
"Leskernick north stone circle","leskernick-north-stone-circle","stone circle",50.59084,-4.56434,"United Kingdom",no,""
"Penmaenmawr Stone Circle, F","penmaenmawr-stone-circle-f","stone circle",53.252974,-3.9170444,"United Kingdom",no,""
"Penmaenmawr Stone Circle","penmaenmawr-stone-circle","stone circle",53.253007,-3.9183351,"United Kingdom",yes,""
"Penmaenmawr Stone Circle, C","penmaenmawr-stone-circle-c","stone circle",53.252974,-3.9170444,"United Kingdom",no,""
"Candle Hill,stone circle 600m SE of Old Rayne","candle-hill-stone-circle-600m-se-of-old-rayne","stone circle",57.341374,-2.5334771,"United Kingdom",no,""
"Stone Circle at Bandirran","stone-circle-at-bandirran","stone circle",56.46416,-3.2852,"United Kingdom",yes,""
"Castle Park Gorsedd Circle, Ruthin","castle-park-gorsedd-circle-ruthin","stone circle",53.110062,-3.3114336,"United Kingdom",no,""
"Standing Stones, W. of Pont Scethin","standing-stones-w-of-pont-scethin","stone circle",52.793099,-4.0363241,"United Kingdom",no,""
"Penmaenmawr Stone Circle","penmaenmawr-stone-circle-1","stone circle",53.253241,-3.9172062,"United Kingdom",no,""
"Dyffryn Mymbyr, Stone Circle","dyffryn-mymbyr-stone-circle","stone circle",53.088283,-4.016398,"United Kingdom",no,""
"Steinkreis im Eselstall","steinkreis-im-eselstall","stone circle",51.792138888,11.092083333,"Germany",no,""
"stone circle 300m SSW of South Ythsie","stone-circle-300m-ssw-of-south-ythsie","stone circle",57.363925,-2.1929512,"United Kingdom",no,""
"Stone Circle, Odyn-Fach","stone-circle-odyn-fach","stone circle",51.801013,-3.3211022,"United Kingdom",no,""
"Stone circle","stone-circle-1","stone circle",49.3194586,14.3504686,"Czech Republic",yes,""
"stone circle 480m NE of Cairnton","stone-circle-480m-ne-of-cairnton","stone circle",57.490496,-2.6926235,"United Kingdom",no,""
"Nant Tarw Ritual Complex, Stone Circle 1","nant-tarw-ritual-complex-stone-circle-1","stone circle",51.918426,-3.7190419,"United Kingdom",yes,""
"stone circle 300m E of Tamnagorn","stone-circle-300m-e-of-tamnagorn","stone circle",57.159244,-2.5779175,"United Kingdom",no,""
"Stone Circle and Round Cairn W of Ynyshir","stone-circle-and-round-cairn-w-of-ynyshir","stone circle",52.032107,-3.5744129,"United Kingdom",no,""
"Gelli Hill Stone Circle","gelli-hill-stone-circle","stone circle",52.216317,-3.3252398,"United Kingdom",no,""
"Mynydd Pen Cyrn Stone Circle","mynydd-pen-cyrn-stone-circle","stone circle",51.82336,-3.1579107,"United Kingdom",no,""
"Mynydd Bach-Trecastell Stone Circles","mynydd-bach-trecastell-stone-circles","stone circle",51.965913,-3.6997517,"United Kingdom",no,""
"Stone Circle","stone-circle-2","stone circle",21.25001446,78.88329248,"India",no,""
"Steinkreis von Gurteen","steinkreis-von-gurteen","stone circle",51.872346,-9.445295,"Ireland",no,""
"Johnscleugh, stone settings 1790m SW of, 1360m SSW of, 1105m SSW of","johnscleugh-stone-settings-1790m-sw-of-1360m-ssw-of-1105m-ssw-of","stone circle",55.878389,-2.6114995,"United Kingdom",no,""
"Murthly,stone circle in grounds of hospital","murthly-stone-circle-in-grounds-of-hospital","stone circle",56.530079,-3.4603426,"United Kingdom",no,""
"Faskally Cottages stone circle","faskally-cottages-stone-circle","stone circle",56.70825,-3.749361111,"United Kingdom",no,""
"Eryrys Four Poster","eryrys-four-poster","stone circle",53.120459,-3.1948958,"United Kingdom",no,""
"Dan Yr Ogof Modern Stone Circles","dan-yr-ogof-modern-stone-circles","stone circle",51.831977,-3.6818149,"United Kingdom",no,""
"The Fedw Stone Circle 360m W of Llanboidy Wood","the-fedw-stone-circle-360m-w-of-llanboidy-wood","stone circle",52.213206,-3.2553742,"United Kingdom",no,""
"North of Pwll Coch Stone Circle","north-of-pwll-coch-stone-circle","stone circle",51.832106,-3.2107868,"United Kingdom",no,""
"Y Naw Carreg","y-naw-carreg","stone circle",51.782321,-4.0583283,"United Kingdom",no,""
"Pen-y-Stryda, Stone Circle","pen-y-stryda-stone-circle","stone circle",52.863597,-3.8946303,"United Kingdom",no,""
"Stoneyfield,stone circle N of","stoneyfield-stone-circle-n-of","stone circle",57.427124,-2.6856639,"United Kingdom",no,""
"Mountain Ash Bardic Circle","mountain-ash-bardic-circle","stone circle",51.688355,-3.3829197,"United Kingdom",no,""
"Domarringar von Vårvik","domarringar-von-varvik","stone circle",58.30072,12.28453,"Sweden",no,""
"Nant Tarw Ritual Complex, Stone Circle 2","nant-tarw-ritual-complex-stone-circle-2","stone circle",51.917998,-3.7175714,"United Kingdom",yes,""
"Fowler's Arm Chair Stone Circle & Round Cairns, Banc Du","fowler-s-arm-chair-stone-circle-round-cairns-banc-du","stone circle",52.402101,-3.410177,"United Kingdom",no,""
"Aviemore stone circle","aviemore-stone-circle","stone circle",57.198767,-3.827386,"United Kingdom",yes,""
"Burgh Hill,stone circle","burgh-hill-stone-circle","stone circle",55.347352,-2.8371288,"United Kingdom",no,""
"Ammanford Gorsedd Stone Circle","ammanford-gorsedd-stone-circle","stone circle",51.797163,-3.9891445,"United Kingdom",no,""
"Cefn Wylfre Stone Circle and Round Barrow","cefn-wylfre-stone-circle-and-round-barrow","stone circle",52.151102,-3.2582887,"United Kingdom",no,""
"Llanllugan, Stone Circle","llanllugan-stone-circle","stone circle",52.577849,-3.4795221,"United Kingdom",no,""
"Six Stones Stone Circle","six-stones-stone-circle","stone circle",52.157071,-3.2250692,"United Kingdom",no,""
"Park Of Tongland Stones","park-of-tongland-stones","stone circle",54.882596,-4.0285709,"United Kingdom",yes,""
"Stone Circle","stone-circle-3","stone circle",20.91670512,78.95114166,"India",no,""
"Stone Circle, Swn-y-Don","stone-circle-swn-y-don","stone circle",51.948042,-5.1559688,"United Kingdom",no,""
"Stone Circle, Pontypridd","stone-circle-pontypridd","stone circle",51.589582,-3.325871,"United Kingdom",no,""
"Rhyd-Wen Fach, Stone Setting","rhyd-wen-fach-stone-setting","stone circle",51.894148,-3.7128829,"United Kingdom",no,""
"stone circle 1320m SW of North Pitglassie","stone-circle-1320m-sw-of-north-pitglassie","stone circle",57.480473,-2.5248809,"United Kingdom",no,""
"Stone Circle, Trum Gelli SE Slopes","stone-circle-trum-gelli-se-slopes","stone circle",52.582872,-3.975121,"United Kingdom",no,""
"Millennium Stone Circle, Hilly Fields","millennium-stone-circle-hilly-fields","stone circle",51.45937,-0.02424,"United Kingdom",yes,""
"Leskernick south stone circle","leskernick-south-stone-circle","stone circle",50.58814,-4.56093,"United Kingdom",no,""
"stone circle 250m NW of Bogton","stone-circle-250m-nw-of-bogton","stone circle",57.631033,-3.2167991,"United Kingdom",no,""
"Clach an Righ, stone circle 400m NNW of Dalharrold","clach-an-righ-stone-circle-400m-nnw-of-dalharrold","stone circle",58.319917,-4.2562714,"United Kingdom",no,""
"Steintanz Bellin","steintanz-bellin","stone circle",53.7262501,12.1831186,"Germany",yes,""
"Mitchell's Fold","mitchell-s-fold","stone circle",52.5787,-3.0261,"United Kingdom",yes,"https://en.wikipedia.org/wiki/Mitchell%27s_Fold"
"Stenehed","stenehed","stone circle",58.577222222,11.516666666,"Sweden",no,"https://en.wikipedia.org/wiki/Stenehed"
"Dunnideer stone circle, 450m NW of Dunnideer Tower","dunnideer-stone-circle-450m-nw-of-dunnideer-tower","stone circle",57.344921,-2.6519132,"United Kingdom",yes,"https://en.wikipedia.org/wiki/Dunnideer_stone_circle"
"Msoura Stone Circle","msoura-stone-circle","stone circle",35.404,-5.944,"Morocco",yes,"https://en.wikipedia.org/wiki/Msoura"
"Ninestane Rig","ninestane-rig","stone circle",55.267543,-2.7608841,"United Kingdom",yes,"https://en.wikipedia.org/wiki/Ninestane_Rig"
"Nine Stones","nine-stones","stone circle",50.5763,-4.49258,"United Kingdom",yes,"https://en.wikipedia.org/wiki/Nine_Stones,_Altarnun"
"Kirkton of Bourtie stone circle","kirkton-of-bourtie-stone-circle","stone circle",57.314085,-2.3321229,"United Kingdom",yes,"https://en.wikipedia.org/wiki/Kirkton_of_Bourtie_stone_circle"
"Strichen Stone Circle","strichen-stone-circle","stone circle",57.5804,-2.1074,"United Kingdom",yes,"https://en.wikipedia.org/wiki/Strichen_stone_circle"
"Derryarkane Stone Circle","derryarkane-stone-circle","stone circle",51.727815,-9.372633,"Ireland",no,"https://en.wikipedia.org/wiki/Derryarkane_Stone_Circle"
"The Goatstones","the-goatstones","stone circle",55.0666,-2.26876,"United Kingdom",yes,"https://en.wikipedia.org/wiki/The_Goatstones"
"Birkrigg stone circle","birkrigg-stone-circle","stone circle",54.156,-3.08564,"United Kingdom",yes,"https://en.wikipedia.org/wiki/Birkrigg_stone_circle"
"Grey Wethers","grey-wethers","stone circle",50.6317,-3.92577,"United Kingdom",yes,"https://en.wikipedia.org/wiki/Grey_Wethers"
"Sheldon Stone Circle","sheldon-stone-circle","stone circle",57.314737,-2.295627,"United Kingdom",yes,"https://en.wikipedia.org/wiki/Sheldon_stone_circle"
"Komakino Site","komakino-site","stone circle",40.7375,140.728167,"Japan",yes,"https://en.wikipedia.org/wiki/Komakino_Site"
"Zorats Karer","zorats-karer","stone circle",39.5507,46.0286,"Armenia",yes,"https://en.wikipedia.org/wiki/Carahunge"
"Aikey Brae","aikey-brae","stone circle",57.513972222,-2.070416666,"United Kingdom",yes,"https://en.wikipedia.org/wiki/Aikey_Brae_stone_circle"
"The Kingston Russell stone circle 750m north east of Gorwell Farm","the-kingston-russell-stone-circle-750m-north-east-of-gorwell-farm","stone circle",50.6885,-2.59899,"United Kingdom",yes,"https://en.wikipedia.org/wiki/Kingston_Russell_Stone_Circle"
"Fir Clump Stone Circle","fir-clump-stone-circle","stone circle",51.5325,-1.766388888,"United Kingdom",no,"https://en.wikipedia.org/wiki/Fir_Clump_Stone_Circle"
"Twelve Apostles Stone Circle","twelve-apostles-stone-circle","stone circle",55.09785,-3.6516759,"United Kingdom",yes,"https://en.wikipedia.org/wiki/Twelve_Apostles_Stone_Circle"
"Nine Stones Close","nine-stones-close","stone circle",53.1604574,-1.6644407,"United Kingdom",yes,"https://en.wikipedia.org/wiki/Nine_Stones_Close"
"Breeny More Stone Circle","breeny-more-stone-circle","stone circle",51.742145,-9.375097,"Ireland",no,"https://en.wikipedia.org/wiki/Breeny_More_Stone_Circle"
"Hoarstones","hoarstones","stone circle",52.5929,-2.9993,"United Kingdom",yes,"https://en.wikipedia.org/wiki/Hoarstones"
"Easthill stone circle","easthill-stone-circle","stone circle",55.047636,-3.6929982,"United Kingdom",yes,"https://en.wikipedia.org/wiki/Easthill_stone_circle"
"Doll Tor","doll-tor","stone circle",53.1625,-1.64501,"United Kingdom",yes,"https://en.wikipedia.org/wiki/Doll_Tor"
"Rathfran Stone Circle","rathfran-stone-circle","stone circle",54.243797,-9.240098,"Ireland",no,"https://en.wikipedia.org/wiki/Rathfran_Stone_Circle"
"Whitcastles stone circle","whitcastles-stone-circle","stone circle",55.1808,-3.22004,"United Kingdom",yes,"https://en.wikipedia.org/wiki/Whitcastles_stone_circle"
"Drombeg stone circle","drombeg-stone-circle","stone circle",51.564553,-9.08702,"Ireland",yes,"https://en.wikipedia.org/wiki/Drombeg_stone_circle"
"Ōyu Stone Circles","oyu-stone-circles","stone circle",40.271667,140.803889,"Japan",yes,"https://en.wikipedia.org/wiki/%C5%8Cyu_Stone_Circles"
"Ōmori Katsuyama Site","omori-katsuyama-site","stone circle",40.698888888,140.358333333,"Japan",yes,"https://en.wikipedia.org/wiki/%C5%8Cmori_Katsuyama_Site"
"Conjunto megalítico da Herdade do Xerez","conjunto-megalitico-da-herdade-do-xerez","stone circle",38.45341,-7.370988,"Portugal",yes,"https://en.wikipedia.org/wiki/Xerez_Cromlech"
"Hill of Fiddes, stone circle","hill-of-fiddes-stone-circle","stone circle",57.309446,-2.1095042,"United Kingdom",yes,"https://en.wikipedia.org/wiki/Hill_of_Fiddes_stone_circle"
"Twelve Apostles of Ilkley Moor","twelve-apostles-of-ilkley-moor","stone circle",53.901555,-1.80957,"United Kingdom",yes,"https://en.wikipedia.org/wiki/Twelve_Apostles,_West_Yorkshire"
"Glebe Stone Circles","glebe-stone-circles","stone circle",53.548511,-9.263524,"Ireland",yes,"https://en.wikipedia.org/wiki/Glebe_Stone_Circles"
"Carrigagulla","carrigagulla","stone circle",51.976944,-8.925,"Ireland",yes,"https://en.wikipedia.org/wiki/Carrigagulla"
"Devil's Quoits","devil-s-quoits","stone circle",51.7399,-1.40587,"United Kingdom",yes,"https://en.wikipedia.org/wiki/Devil%27s_Quoits"
"Beltany stone circle","beltany-stone-circle","stone circle",54.85091944,-7.59962222,"Ireland",yes,"https://en.wikipedia.org/wiki/Beltany_stone_circle"
"Brisworthy stone circle","brisworthy-stone-circle","stone circle",50.4716,-4.02401,"United Kingdom",yes,"https://en.wikipedia.org/wiki/Brisworthy_stone_circle"
"Colmeallie stone circle","colmeallie-stone-circle","stone circle",56.892378,-2.7144745,"United Kingdom",yes,"https://en.wikipedia.org/wiki/Colmeallie_stone_circle"
"Tomnaverie, stone circle","tomnaverie-stone-circle","stone circle",57.119411098,-2.849553997,"United Kingdom",yes,"https://en.wikipedia.org/wiki/Tomnaverie_stone_circle"
"Yonder Bognie stone circle","yonder-bognie-stone-circle","stone circle",57.500411,-2.6680325,"United Kingdom",no,"https://en.wikipedia.org/wiki/Yonder_Bognie"
"Stone circle and stone alignment 370m west of Threestoneburn House","stone-circle-and-stone-alignment-370m-west-of-threestoneburn-house","stone circle",55.4783,-2.04692,"United Kingdom",yes,"https://en.wikipedia.org/wiki/Threestoneburn_Stone_Circle"
"Boskednan stone circle","boskednan-stone-circle","stone circle",50.1606,-5.59374,"United Kingdom",yes,"https://en.wikipedia.org/wiki/Boskednan_stone_circle"
"Cheetham Close","cheetham-close","stone circle",53.6385,-2.43015,"United Kingdom",yes,"https://en.wikipedia.org/wiki/Cheetham_Close"
"Yellowmead Down","yellowmead-down","stone circle",50.49297222,-4.01055556,"United Kingdom",yes,"https://en.wikipedia.org/wiki/Yellowmead_stone_circle"
"Loanhead of Daviot stone circle","loanhead-of-daviot-stone-circle","stone circle",57.349444911,-2.421045225,"United Kingdom",yes,"https://en.wikipedia.org/wiki/Loanhead_of_Daviot_stone_circle"
"Cairnfield including a prehistoric enclosure, 5 stone circles, 10 funerary cairns, 6 stone banks, 2 stone walls, a lynchet and a","cairnfield-including-a-prehistoric-enclosure-5-stone-circles-10-funerary-cairns-6-stone-banks-2-ston","stone circle",54.4118,-3.27408,"United Kingdom",yes,"https://en.wikipedia.org/wiki/Burnmoor_stone_circles"
"Tregeseal East stone circle","tregeseal-east-stone-circle","stone circle",50.1337,-5.65852,"United Kingdom",yes,"https://en.wikipedia.org/wiki/Tregeseal_East_stone_circle"
"Cullerlie stone circle","cullerlie-stone-circle","stone circle",57.12892,-2.35661,"United Kingdom",yes,"https://en.wikipedia.org/wiki/Cullerlie_stone_circle"
"Hurlers Stone Circles","hurlers-stone-circles","stone circle",50.5163239,-4.4582182,"United Kingdom",yes,"https://en.wikipedia.org/wiki/The_Hurlers_(stone_circles)"
"Grange stone circle","grange-stone-circle","stone circle",52.514238,-8.5418895,"Ireland",yes,"https://en.wikipedia.org/wiki/Grange_stone_circle"
"Istrehågan","istrehagan","stone circle",59.096846,10.174228,"Norway",yes,"https://en.wikipedia.org/wiki/Istreh%C3%A5gan"
"Carrigaphooca Stone Circle","carrigaphooca-stone-circle","stone circle",51.909598,-9.02499,"Ireland",no,"https://en.wikipedia.org/wiki/Carrigaphooca_Stone_Circle"
"Moss Farm Road Stone Circle","moss-farm-road-stone-circle","stone circle",55.54225,-5.32924,"United Kingdom",yes,"https://en.wikipedia.org/wiki/Moss_Farm_Road_Stone_Circle"
"Porlock Stone Circle","porlock-stone-circle","stone circle",51.1894,-3.65385,"United Kingdom",yes,"https://en.wikipedia.org/wiki/Porlock_Stone_Circle"
"Stone circle on Withypool Hill 670m ESE of Portford Bridge","stone-circle-on-withypool-hill-670m-ese-of-portford-bridge","stone circle",51.0963,-3.66041,"United Kingdom",yes,"https://en.wikipedia.org/wiki/Withypool_Stone_Circle"
"Aboyne Stone Circle","aboyne-stone-circle","stone circle",57.08014167,-2.78716389,"United Kingdom",yes,"https://en.wikipedia.org/wiki/Aboyne_Stone_Circle"
"Bryn Gwyn stones","bryn-gwyn-stones","stone circle",53.1772,-4.30213,"United Kingdom",yes,"https://en.wikipedia.org/wiki/Bryn_Gwyn_stones"
"Old Bourtreebush","old-bourtreebush","stone circle",57.055775,-2.1605362,"United Kingdom",yes,"https://en.wikipedia.org/wiki/Auld_Bourtreebush"
"Scorhill","scorhill","stone circle",50.6706,-3.90542,"United Kingdom",yes,"https://en.wikipedia.org/wiki/Scorhill"
"Falkner's Circle","falkner-s-circle","stone circle",51.4227,-1.84354,"United Kingdom",yes,"https://en.wikipedia.org/wiki/Falkner%27s_Circle"
"Easter Aquhorthies","easter-aquhorthies","stone circle",57.27702,-2.44557,"United Kingdom",yes,"https://en.wikipedia.org/wiki/Easter_Aquhorthies_stone_circle"
"Xagħra Stone Circle","xag-ra-stone-circle","stone circle",36.046388888,14.264722222,"Malta",yes,"https://en.wikipedia.org/wiki/Xag%C4%A7ra_Stone_Circle"
"Balquhain stone circle","balquhain-stone-circle","stone circle",57.30658,-2.4415016,"United Kingdom",yes,"https://en.wikipedia.org/wiki/Balquhain"
"Rollright Stones","rollright-stones","stone circle",51.975555555,-1.570833333,"United Kingdom",yes,"https://en.wikipedia.org/wiki/Rollright_Stones"
"Swinside","swinside","stone circle",54.2824823,-3.2738449,"United Kingdom",yes,"https://en.wikipedia.org/wiki/Swinside"
"Rempstone Stone Circle","rempstone-stone-circle","stone circle",50.6384,-2.00897,"United Kingdom",yes,"https://en.wikipedia.org/wiki/Rempstone_Stone_Circle"
"Nine Stones","nine-stones-1","stone circle",50.7122,-2.55263,"United Kingdom",yes,"https://en.wikipedia.org/wiki/Nine_Stones,_Winterbourne_Abbas"
"Winterbourne Bassett Stone Circle","winterbourne-bassett-stone-circle","stone circle",51.4785,-1.86649,"United Kingdom",no,"https://en.wikipedia.org/wiki/Winterbourne_Bassett_Stone_Circle"
"Tyrebagger","tyrebagger","stone circle",57.20953,-2.234208,"United Kingdom",yes,"https://en.wikipedia.org/wiki/Tyrebagger_stone_circle"
"Hordron Edge stone circle","hordron-edge-stone-circle","stone circle",53.3781,-1.67791,"United Kingdom",yes,"https://en.wikipedia.org/wiki/Hordron_Edge_stone_circle"
"The Merry Maidens","the-merry-maidens","stone circle",50.0651283,-5.5887748,"United Kingdom",yes,"https://en.wikipedia.org/wiki/The_Merry_Maidens"
"Ballynoe Stone Circle","ballynoe-stone-circle","stone circle",54.290277777,-5.724444444,"United Kingdom",yes,"https://en.wikipedia.org/wiki/Ballynoe_stone_circle"
"Loupin Stanes","loupin-stanes","stone circle",55.258281,-3.1705054,"United Kingdom",yes,"https://en.wikipedia.org/wiki/Loupin_Stanes"
"Piper's Stones","piper-s-stones","stone circle",53.07194444,-6.61277778,"Ireland",yes,"https://en.wikipedia.org/wiki/Piper%27s_Stones"
"Boscawen-Un","boscawen-un","stone circle",50.0898332,-5.619322,"United Kingdom",yes,"https://en.wikipedia.org/wiki/Boscawen-Un"
"Balbirnie Stone Circle","balbirnie-stone-circle","stone circle",56.213838888,-3.152930555,"United Kingdom",yes,"https://en.wikipedia.org/wiki/Balbirnie_Stone_Circle"
"Uragh Stone Circle","uragh-stone-circle","stone circle",51.81172222,-9.69380556,"Ireland",yes,"https://en.wikipedia.org/wiki/Uragh_Stone_Circle"
"Castlerigg stone circle","castlerigg-stone-circle","stone circle",54.6028,-3.09843,"United Kingdom",yes,"https://en.wikipedia.org/wiki/Castlerigg_stone_circle"
"Glenquicken stone circle","glenquicken-stone-circle","stone circle",54.896339,-4.325443,"United Kingdom",yes,"https://en.wikipedia.org/wiki/Glenquicken_stone_circle"
"Almendres Cromlech","almendres-cromlech","stone circle",38.557497,-8.061077,"Portugal",yes,"https://en.wikipedia.org/wiki/Almendres_Cromlech"
"Avebury","avebury","stone circle",51.428611111,-1.854166666,"United Kingdom",yes,"https://en.wikipedia.org/wiki/Avebury"
"Day House Lane Stone Circle","day-house-lane-stone-circle","stone circle",51.54,-1.73978,"United Kingdom",no,"https://en.wikipedia.org/wiki/Day_House_Lane_Stone_Circle"
"Callanish IV","callanish-iv","stone circle",58.175589,-6.7136027,"United Kingdom",yes,"https://en.wikipedia.org/wiki/Callanish_IV"
"Gamelands stone circle","gamelands-stone-circle","stone circle",54.4676,-2.5569,"United Kingdom",yes,"https://en.wikipedia.org/wiki/Gamelands_stone_circle"
"Otoe Stone Circle","otoe-stone-circle","stone circle",43.674028,142.033639,"Japan",no,"https://en.wikipedia.org/wiki/Otoe_Stone_Circle"
"Nine Ladies","nine-ladies","stone circle",53.1681,-1.62889,"United Kingdom",yes,"https://en.wikipedia.org/wiki/Nine_Ladies"
"Top1 Shiga","top1-shiga","dolmen",35.204239,136.908582,"Japan",no,""
"Prada Aoyama","prada-aoyama","dolmen",35.695599,139.8255742,"Japan",yes,""
"Matthiae's Cafe And Bakery","matthiae-s-cafe-and-bakery","dolmen",51.465676,-0.298434,"United Kingdom",yes,""
"Ito-Yokado Makuhari","ito-yokado-makuhari","dolmen",35.655864,140.05009,"Japan",yes,""
"Mercado de la Abejera","mercado-de-la-abejera","dolmen",28.454694444,-16.272805555,"Spain",yes,""
"MaxValu Hatooka","maxvalu-hatooka","dolmen",35.20752,136.9122,"Japan",no,""
"Heiwado Sobue","heiwado-sobue","dolmen",35.254478641,136.721236097,"Japan",no,""
"Hala Kopińska","hala-kopinska","dolmen",52.218447,20.97695,"Poland",yes,""
"4 Wiejska Street in Prudnik","4-wiejska-street-in-prudnik","dolmen",50.321388888,17.587388888,"Poland",yes,""
"West Hall","west-hall","dolmen",52.238833,20.997389,"Poland",yes,""
"Sanoya (Osu)","sanoya-osu","dolmen",35.158734808,136.904579675,"Japan",yes,""
"Bodega San José","bodega-san-jose","dolmen",36.595929593,-6.232375867,"Spain",yes,""
"Hale Banacha","hale-banacha","dolmen",52.20905,20.97653,"Poland",yes,""
"OBI Okęcie","obi-okecie","dolmen",52.174491666,20.945525,"Poland",yes,""
"Ipercoop Tirreno","ipercoop-tirreno","dolmen",40.862758,14.270209,"Italy",no,""
"ÆON FOOD STYLE Shim-Matsudo","on-food-style-shim-matsudo","dolmen",35.825278,139.915556,"Japan",yes,""
"ÆON STYLE Sannou","on-style-sannou","dolmen",39.718166666,140.096555555,"Japan",yes,""
"The Crown","the-crown","dolmen",51.654251,-0.279513,"United Kingdom",yes,""
"The Charlotte","the-charlotte","dolmen",52.6313,-1.1372,"United Kingdom",yes,"https://en.wikipedia.org/wiki/The_Charlotte"
"Hoover Building","hoover-building","dolmen",51.5336,-0.318889,"United Kingdom",yes,"https://en.wikipedia.org/wiki/Hoover_Building"
"Hala Wola","hala-wola","dolmen",52.228423624,20.914188478,"Poland",yes,""
"Piago La Foods Core Kurokawa","piago-la-foods-core-kurokawa","dolmen",35.200523,136.912265956,"Japan",yes,""
"Grand Frais Beynost","grand-frais-beynost","dolmen",45.82321,4.99451,"France",yes,""
"Dom Zgromadzenia Majstrów Tkackich w Łodzi","dom-zgromadzenia-majstrow-tkackich-w-odzi","dolmen",51.7655,19.4582,"Poland",yes,""
"Foodcoop BCN","foodcoop-bcn","dolmen",41.3857,2.15724,"Spain",yes,""
"Companhia Agrícola do Sanguinhal","companhia-agricola-do-sanguinhal","dolmen",39.264793,-9.154456,"Portugal",yes,""
"Calwer Carree","calwer-carree","dolmen",48.707431175,8.997792005,"Germany",yes,""
"Konsum, Schandauer Straße 46","konsum-schandauer-stra-e-46","dolmen",51.042125762,13.795907189,"Germany",yes,""
"Marukou Corporation","marukou-corporation","dolmen",36.2561845,138.8963991,"Japan",no,""
"5-19 Leven Street","5-19-leven-street","dolmen",55.941539665,-3.2037431,"United Kingdom",yes,""
"Realmarkt Röhrer Weg Böblingen","realmarkt-rohrer-weg-boblingen","dolmen",48.671735302,9.012436866,"Germany",yes,""
"Codona's Amusement Park","codona-s-amusement-park","cairn",57.1511,-2.0775,"United Kingdom",yes,"https://en.wikipedia.org/wiki/Codona%27s_Amusement_Park"
"Kristiansand Zoo and Amusement Park","kristiansand-zoo-and-amusement-park","cairn",58.18506,8.141406,"Norway",yes,"https://en.wikipedia.org/wiki/Kristiansand_Zoo_and_Amusement_Park"
"Dash n Splash","dash-n-splash","cairn",13.027691,80.010831,"India",no,"https://en.wikipedia.org/wiki/Dash_n_Splash"
"Clarence Pier","clarence-pier","cairn",50.7861,-1.10113,"United Kingdom",yes,"https://en.wikipedia.org/wiki/Clarence_Pier"
"Hunderfossen Familiepark","hunderfossen-familiepark","cairn",61.22423889,10.42825833,"Norway",yes,"https://en.wikipedia.org/wiki/Hunderfossen_Familiepark"
"Crealy Theme Park & Resort","crealy-theme-park-resort","cairn",50.705555941,-3.41608025,"United Kingdom",yes,"https://en.wikipedia.org/wiki/Crealy_Theme_Park_%26_Resort"
"Magic Park Verden","magic-park-verden","cairn",52.9342,9.27111,"Germany",no,"https://en.wikipedia.org/wiki/Verden_Magic_Park"
"Lightwater Valley","lightwater-valley","cairn",54.176,-1.57044,"United Kingdom",yes,"https://en.wikipedia.org/wiki/Lightwater_Valley"
"Sprookjeswonderland","sprookjeswonderland","cairn",52.71214,5.29011,"Netherlands",yes,"https://en.wikipedia.org/wiki/Sprookjeswonderland"
"Coney Beach Pleasure Park","coney-beach-pleasure-park","cairn",51.4797,-3.6967,"United Kingdom",yes,"https://en.wikipedia.org/wiki/Coney_Beach_Pleasure_Park"
"Tokyo Dome City Attractions","tokyo-dome-city-attractions","cairn",35.7053,139.754,"Japan",yes,"https://en.wikipedia.org/wiki/Tokyo_Dome_City_Attractions"
"Skara Sommarland","skara-sommarland","cairn",58.4042,13.5523,"Sweden",yes,"https://en.wikipedia.org/wiki/Skara_Sommarland"
"Duinrell","duinrell","cairn",52.146667,4.381111,"Netherlands",yes,"https://en.wikipedia.org/wiki/Duinrell"
"De Valkenier","de-valkenier","cairn",50.868,5.824,"Netherlands",yes,"https://en.wikipedia.org/wiki/De_Valkenier"
"Phantasialand","phantasialand","cairn",50.8,6.879444444,"Germany",yes,"https://en.wikipedia.org/wiki/Phantasialand"
"Neeltje Jans","neeltje-jans","cairn",51.626944444,3.700277777,"Netherlands",yes,"https://en.wikipedia.org/wiki/Neeltje_Jans"
"Disneyland Paris","disneyland-paris","cairn",48.868719444,2.7818,"France",yes,"https://en.wikipedia.org/wiki/Disneyland_Paris"
"Adventure Island","adventure-island","cairn",51.5325,0.715833,"United Kingdom",yes,"https://en.wikipedia.org/wiki/Adventure_Island_(amusement_park)"
"Madurodam","madurodam","cairn",52.099403,4.297558,"Netherlands",yes,"https://en.wikipedia.org/wiki/Madurodam"
"Western Leone","western-leone","cairn",37.0322,-2.44641,"Spain",yes,"https://en.wikipedia.org/wiki/Western_Leone"
"Cowboyland","cowboyland","cairn",44.96863889,9.01316643,"Italy",yes,"https://en.wikipedia.org/wiki/Cowboyland"
"Plopsa Coo","plopsa-coo","cairn",50.393889,5.874444,"Belgium",yes,"https://en.wikipedia.org/wiki/Plopsaland_Ardennes"
"Tivoli Friheden","tivoli-friheden","cairn",56.136416666,10.198083333,"Denmark",yes,"https://en.wikipedia.org/wiki/Tivoli_Friheden"
"Taman Mini Indonesia Indah","taman-mini-indonesia-indah","cairn",-6.301667,106.896667,"Indonesia",yes,"https://en.wikipedia.org/wiki/Taman_Mini_Indonesia_Indah"
"Luna Park","luna-park","cairn",51.37,12.321,"Germany",no,"https://en.wikipedia.org/wiki/Luna_Park,_Leipzig"
"Dinosaur Land","dinosaur-land","cairn",54.5636,13.5254,"Germany",yes,"https://en.wikipedia.org/wiki/Dinosaur_Land_(R%C3%BCgen)"
"Festyland","festyland","cairn",49.182778,-0.423056,"France",yes,"https://en.wikipedia.org/wiki/Parc_Festyland"
"Legoland Windsor","legoland-windsor","cairn",51.4635,-0.65114,"United Kingdom",yes,"https://en.wikipedia.org/wiki/Legoland_Windsor_Resort"
"Luneur Park","luneur-park","cairn",41.837351134,12.47611977,"Italy",yes,"https://en.wikipedia.org/wiki/LunEur"
"Heide Park","heide-park","cairn",53.0253,9.879,"Germany",yes,"https://en.wikipedia.org/wiki/Heide_Park"
"Hansa Park","hansa-park","cairn",54.0755,10.7802,"Germany",yes,"https://en.wikipedia.org/wiki/Hansa-Park"
"Thorpe Park","thorpe-park","cairn",51.404722222,-0.513055555,"United Kingdom",yes,"https://en.wikipedia.org/wiki/Thorpe_Park"
"Holiday Park","holiday-park","cairn",49.3197,8.29472,"Germany",yes,"https://en.wikipedia.org/wiki/Plopsaland_Deutschland"
"Tibidabo","tibidabo","cairn",41.421751,2.120044,"Spain",yes,"https://en.wikipedia.org/wiki/Tibidabo_Amusement_Park"
"Tokyo Disney Resort","tokyo-disney-resort","cairn",35.629722222,139.882777777,"Japan",yes,"https://en.wikipedia.org/wiki/Tokyo_Disney_Resort"
"Pleasure Beach Resort","pleasure-beach-resort","cairn",53.7903,-3.05556,"United Kingdom",yes,"https://en.wikipedia.org/wiki/Blackpool_Pleasure_Beach"
"Gröna Lund","grona-lund","cairn",59.323055555,18.096111111,"Sweden",yes,"https://en.wikipedia.org/wiki/Gr%C3%B6na_Lund"
"Efteling","efteling","cairn",51.650277777,5.048055555,"Netherlands",yes,"https://en.wikipedia.org/wiki/Efteling"
"Belantis","belantis","cairn",51.2518,12.3153,"Germany",yes,"https://en.wikipedia.org/wiki/Belantis"
"The American Adventure Theme Park","the-american-adventure-theme-park","cairn",52.9947,-1.335,"United Kingdom",yes,"https://en.wikipedia.org/wiki/The_American_Adventure_Theme_Park"
"Gorky Park","gorky-park","cairn",55.73135347,37.60463662,"Russia",yes,"https://en.wikipedia.org/wiki/Gorky_Park_(Moscow)"
"Magic-City","magic-city","cairn",48.86166667,2.30416667,"France",yes,"https://en.wikipedia.org/wiki/Magic-City"
"Djurs Sommerland","djurs-sommerland","cairn",56.42478475,10.54992199,"Denmark",yes,"https://en.wikipedia.org/wiki/Djurs_Sommerland"
"Steinwasen Park","steinwasen-park","cairn",47.89972222,7.92222222,"Germany",yes,"https://en.wikipedia.org/wiki/Steinwasen_Park"
"Dreamland Margate","dreamland-margate","cairn",51.3863,1.3759,"United Kingdom",yes,"https://en.wikipedia.org/wiki/Dreamland_Margate"
"Tivoli Gardens","tivoli-gardens","cairn",55.673611111,12.568333333,"Denmark",yes,"https://en.wikipedia.org/wiki/Tivoli_Gardens"
"Speelland Beekse Bergen","speelland-beekse-bergen","cairn",51.527,5.125,"Netherlands",yes,"https://en.wikipedia.org/wiki/Speelland_Beekse_Bergen"
"Luna Park, Tel Aviv","luna-park-tel-aviv","cairn",32.106279,34.812026,"Israel",yes,"https://en.wikipedia.org/wiki/Luna_Park,_Tel_Aviv"
"Europark Idroscalo Milano","europark-idroscalo-milano","cairn",45.474805555,9.285105555,"Italy",yes,"https://en.wikipedia.org/wiki/Europark_Idroscalo_Milano"
"Mirabilandia","mirabilandia","cairn",44.337222,12.263333,"Italy",yes,"https://en.wikipedia.org/wiki/Mirabilandia_(Italy)"
"Europa-Park","europa-park","cairn",48.268333,7.720833,"Germany",yes,"https://en.wikipedia.org/wiki/Europa-Park"
"Disney Adventure World","disney-adventure-world","cairn",48.867222222,2.778888888,"France",yes,"https://en.wikipedia.org/wiki/Walt_Disney_Studios_Park"
"Attractiepark Slagharen","attractiepark-slagharen","cairn",52.624444,6.561944,"Netherlands",yes,"https://en.wikipedia.org/wiki/Attractiepark_Slagharen"
"Dennlys Park","dennlys-park","cairn",50.57055556,2.15416667,"France",yes,"https://en.wikipedia.org/wiki/Dennlys_Parc"
"Mirapolis","mirapolis","cairn",49.055,1.99916667,"France",yes,"https://en.wikipedia.org/wiki/Mirapolis"
"CavallinoMatto","cavallinomatto","cairn",43.18138889,10.54861111,"Italy",yes,"https://en.wikipedia.org/wiki/Cavallino_Matto"
"Parque de Atracciones de Madrid","parque-de-atracciones-de-madrid","cairn",40.41277778,-3.75083333,"Spain",yes,"https://en.wikipedia.org/wiki/Parque_de_Atracciones_de_Madrid"
"Camelot Theme Park","camelot-theme-park","cairn",53.6353,-2.6975,"United Kingdom",no,"https://en.wikipedia.org/wiki/Camelot_Theme_Park"
"Parque Warner Madrid","parque-warner-madrid","cairn",40.23170824,-3.59429419,"Spain",yes,"https://en.wikipedia.org/wiki/Parque_Warner_Madrid"
"Transvaal Park","transvaal-park","cairn",55.598055555,37.529444444,"Russia",yes,"https://en.wikipedia.org/wiki/Transvaal_Park"
"Cinecittà World","cinecitta-world","cairn",41.709,12.4467,"Italy",yes,"https://en.wikipedia.org/wiki/Cinecitt%C3%A0_World"
"Yomiuriland","yomiuriland","cairn",35.6258,139.519,"Japan",yes,"https://en.wikipedia.org/wiki/Yomiuriland"
"Nara Dreamland","nara-dreamland","cairn",34.7,135.82416667,"Japan",yes,"https://en.wikipedia.org/wiki/Nara_Dreamland"
"Gardaland","gardaland","cairn",45.45722,10.71083,"Italy",yes,"https://en.wikipedia.org/wiki/Gardaland"
"Zoomarine","zoomarine","cairn",41.633611111,12.456666666,"Italy",yes,"https://en.wikipedia.org/wiki/Zoomarine"
"Fårup Summer Park","farup-summer-park","cairn",57.27055556,9.64777778,"Denmark",yes,"https://en.wikipedia.org/wiki/F%C3%A5rup_Summer_Park"
"Space World","space-world","cairn",33.87352,130.81215,"Japan",yes,"https://en.wikipedia.org/wiki/Space_World"
"Kongeparken","kongeparken","cairn",58.77861111,5.84055556,"Norway",yes,"https://en.wikipedia.org/wiki/Kongeparken"
"Dickens World","dickens-world","cairn",51.4011,0.5323,"United Kingdom",yes,"https://en.wikipedia.org/wiki/Dickens_World"
"Walibi Rhône-Alpes","walibi-rhone-alpes","cairn",45.62138889,5.57027778,"France",yes,"https://en.wikipedia.org/wiki/Walibi_Rh%C3%B4ne-Alpes"
"Robin Hill","robin-hill","cairn",50.6878,-1.24361,"United Kingdom",no,"https://en.wikipedia.org/wiki/Robin_Hill_Country_Park"
"Wicksteed Park","wicksteed-park","cairn",52.385,-0.703,"United Kingdom",yes,"https://en.wikipedia.org/wiki/Wicksteed_Park"
"Surendrapuri","surendrapuri","cairn",17.565,78.9444,"India",no,"https://en.wikipedia.org/wiki/Surendrapuri"
"Snow World","snow-world","cairn",17.514877,78.48087,"India",yes,"https://en.wikipedia.org/wiki/Snow_World"
"Rusutsu Resort","rusutsu-resort","cairn",42.74968,140.90329,"Japan",yes,"https://en.wikipedia.org/wiki/Rusutsu_Resort"
"VGP Universal Kingdom","vgp-universal-kingdom","cairn",12.9142,80.2506,"India",no,"https://en.wikipedia.org/wiki/VGP_Universal_Kingdom"
"Spanish City","spanish-city","cairn",55.0476,-1.44747,"United Kingdom",yes,"https://en.wikipedia.org/wiki/Spanish_City"
"The Flambards Experience","the-flambards-experience","cairn",50.092,-5.258,"United Kingdom",yes,"https://en.wikipedia.org/wiki/Flambards_Theme_Park"
"The Milky Way Adventure Park","the-milky-way-adventure-park","cairn",50.9804,-4.384,"United Kingdom",no,"https://en.wikipedia.org/wiki/The_Milky_Way_(amusement_park)"
"Queens Land","queens-land","cairn",13.029374,80.028818,"India",yes,"https://en.wikipedia.org/wiki/Queens_Land"
"Tikuji-Ni-Wadi","tikuji-ni-wadi","cairn",19.237,72.9695,"India",no,"https://en.wikipedia.org/wiki/Tikuji-Ni-Wadi"
"Pirate Adventure Park","pirate-adventure-park","cairn",53.80619,-9.53751,"Ireland",no,"https://en.wikipedia.org/wiki/Westport_Adventure_Park"
"Silesian Amusement Park","silesian-amusement-park","cairn",50.273763,18.990555,"Poland",yes,"https://en.wikipedia.org/wiki/Legendia"
"Tosselilla Summer Park","tosselilla-summer-park","cairn",55.553055555,13.906111111,"Sweden",yes,"https://en.wikipedia.org/wiki/Tosselilla_Summer_Park"
"Trans Studio Makassar","trans-studio-makassar","cairn",-5.15968,119.394,"Indonesia",yes,"https://en.wikipedia.org/wiki/Trans_Studio_Makassar"
"Freizeit-Land Geiselwind","freizeit-land-geiselwind","cairn",49.7804,10.4576,"Germany",no,"https://en.wikipedia.org/wiki/Freizeit-Land_Geiselwind"
"Tusenfryd","tusenfryd","cairn",59.748226,10.777019,"Norway",yes,"https://en.wikipedia.org/wiki/Tusenfryd"
"Kishkinta","kishkinta","cairn",12.938304,80.079088,"India",no,"https://en.wikipedia.org/wiki/Kishkinta"
"Curry's Fun Park","curry-s-fun-park","cairn",55.203,-6.654,"United Kingdom",no,"https://en.wikipedia.org/wiki/Barry%27s_Amusements"
"Plopsaland Belgium","plopsaland-belgium","cairn",51.079722,2.596944,"Belgium",no,"https://en.wikipedia.org/wiki/Plopsaland_Belgium"
"Elbauenpark","elbauenpark","cairn",52.1349,11.669,"Germany",yes,"https://en.wikipedia.org/wiki/Elbauenpark"
"Luna Park","luna-park-1","cairn",48.8795,2.28344,"France",yes,"https://en.wikipedia.org/wiki/Luna_Park,_Paris"
"La Récré des 3 Curés","la-recre-des-3-cures","cairn",48.4729,-4.52579,"France",yes,"https://en.wikipedia.org/wiki/La_R%C3%A9cr%C3%A9_Des_3_Cur%C3%A9s"
"Parc Bagatelle","parc-bagatelle","cairn",50.43,1.6028,"France",yes,"https://en.wikipedia.org/wiki/Parc_Bagatelle"
"Brighton Pier","brighton-pier","cairn",50.8183,-0.136624,"United Kingdom",yes,"https://en.wikipedia.org/wiki/Brighton_Palace_Pier"
"Pleasure Island Family Theme Park","pleasure-island-family-theme-park","cairn",53.5434,-0.00818889,"United Kingdom",no,"https://en.wikipedia.org/wiki/Pleasure_Island_Family_Theme_Park"
"Hirakata Park","hirakata-park","cairn",34.80577778,135.63813056,"Japan",yes,"https://en.wikipedia.org/wiki/Hirakata_Park"
"Fuji-Q Highland","fuji-q-highland","cairn",35.48749,138.78019,"Japan",yes,"https://en.wikipedia.org/wiki/Fuji-Q_Highland"
"Oakwood Theme Park","oakwood-theme-park","cairn",51.7794,-4.8048,"United Kingdom",yes,"https://en.wikipedia.org/wiki/Oakwood_Theme_Park"
"La Mer de sable","la-mer-de-sable","cairn",49.145388888,2.67635,"France",yes,"https://en.wikipedia.org/wiki/La_Mer_de_Sable"
"Liseberg","liseberg","cairn",57.695555555,11.99,"Sweden",yes,"https://en.wikipedia.org/wiki/Liseberg"
"Movie Park Germany","movie-park-germany","cairn",51.62,6.9725,"Germany",yes,"https://en.wikipedia.org/wiki/Movie_Park_Germany"
"Pleasurewood Hills","pleasurewood-hills","cairn",52.5071,1.74443,"United Kingdom",yes,"https://en.wikipedia.org/wiki/Pleasurewood_Hills"
"Appu Ghar","appu-ghar","cairn",28.616813,77.243359,"India",no,"https://en.wikipedia.org/wiki/Appu_Ghar"
"Pleasureland Southport","pleasureland-southport","cairn",53.6492,-3.01707,"United Kingdom",no,"https://en.wikipedia.org/wiki/Adventure_Coast_Southport"
"Adventure Wonderland","adventure-wonderland","cairn",50.776,-1.845,"United Kingdom",yes,"https://en.wikipedia.org/wiki/Adventure_Wonderland"
"Huis Ten Bosch","huis-ten-bosch","cairn",33.0865,129.786889,"Japan",yes,"https://en.wikipedia.org/wiki/Huis_Ten_Bosch_(theme_park)"
"Spreepark","spreepark","cairn",52.4858,13.4878,"Germany",yes,"https://en.wikipedia.org/wiki/Spreepark"
"Freizeitpark Plohn","freizeitpark-plohn","cairn",50.56583333,12.39972222,"Germany",yes,"https://en.wikipedia.org/wiki/Freizeitpark_Plohn"
"Öland Zoo and Amusement Park","oland-zoo-and-amusement-park","cairn",56.670555555,16.490277777,"Sweden",no,"https://en.wikipedia.org/wiki/%C3%96land_Zoo_and_Amusement_Park"
"Expoland","expoland","cairn",34.80555556,135.535,"Japan",yes,"https://en.wikipedia.org/wiki/Expoland"
"Parc Astérix","parc-asterix","cairn",49.135277777,2.571666666,"France",yes,"https://en.wikipedia.org/wiki/Parc_Ast%C3%A9rix"
"Lillom","lillom","cairn",50.65405,2.982975,"France",no,"https://en.wikipedia.org/wiki/Lillom"
"Arsenal Park Transilvania","arsenal-park-transilvania","cairn",45.8318,23.1638,"Romania",no,"https://en.wikipedia.org/wiki/Arsenal_Park_Transilvania"
"Kodomonokuni Theme Park","kodomonokuni-theme-park","cairn",35.562325,139.491424,"Japan",yes,"https://en.wikipedia.org/wiki/Kodomonokuni_Theme_Park"
"Toverland","toverland","cairn",51.39583,5.98583,"Netherlands",yes,"https://en.wikipedia.org/wiki/Toverland"
"Frontierland, Morecambe","frontierland-morecambe","cairn",54.0687,-2.87601,"United Kingdom",yes,"https://en.wikipedia.org/wiki/Frontierland,_Morecambe"
"KidZania Koshien","kidzania-koshien","cairn",34.716861111,135.363861111,"Japan",no,"https://en.wikipedia.org/wiki/KidZania_Koshien"
"Geumo Land","geumo-land","cairn",36.113,128.316,"South Korea",no,"https://en.wikipedia.org/wiki/Geumo_Land"
"Blackgang Chine","blackgang-chine","cairn",50.58889,-1.31444,"United Kingdom",yes,"https://en.wikipedia.org/wiki/Blackgang_Chine"
"Schloss Beck","schloss-beck","cairn",51.6133,6.97806,"Germany",yes,"https://en.wikipedia.org/wiki/Schloss_Beck"
"Salitre Magico","salitre-magico","cairn",4.668179,-74.09096,"Colombia",yes,"https://en.wikipedia.org/wiki/Salitre_M%C3%A1gico"
"Yokohama Hakkeijima Sea Paradise","yokohama-hakkeijima-sea-paradise","cairn",35.337441666,139.647333333,"Japan",yes,"https://en.wikipedia.org/wiki/Yokohama_Hakkeijima_Sea_Paradise"
"Gulliver's Kingdom Resort","gulliver-s-kingdom-resort","cairn",53.1182,-1.56439,"United Kingdom",yes,"https://en.wikipedia.org/wiki/Gulliver%27s_Kingdom"
"Legoland Deutschland","legoland-deutschland","cairn",48.42444444,10.29972222,"Germany",yes,"https://en.wikipedia.org/wiki/Legoland_Deutschland_Resort"
"Great Yarmouth Pleasure Beach","great-yarmouth-pleasure-beach","cairn",52.5937,1.73608,"United Kingdom",no,"https://en.wikipedia.org/wiki/Great_Yarmouth_Pleasure_Beach"
"Shin-Yokohama Raumen Museum","shin-yokohama-raumen-museum","cairn",35.509874,139.614537,"Japan",yes,"https://en.wikipedia.org/wiki/Shin-Yokohama_Ramen_Museum"
"Kidzania Tokyo","kidzania-tokyo","cairn",35.65583333,139.79194444,"Japan",yes,"https://en.wikipedia.org/wiki/KidZania_Tokyo"
"BonBon-Land","bonbon-land","cairn",55.26055556,11.86333333,"Denmark",yes,"https://en.wikipedia.org/wiki/BonBon-Land"
"Jardin d'Acclimatation","jardin-d-acclimatation","cairn",48.8775,2.26305556,"France",yes,"https://en.wikipedia.org/wiki/Jardin_d%27Acclimatation"
"Dobwalls Adventure Park","dobwalls-adventure-park","cairn",50.4655,-4.51882,"United Kingdom",no,"https://en.wikipedia.org/wiki/Dobwalls_Adventure_Park"
"Bobbejaanland","bobbejaanland","cairn",51.201111111,4.905,"Belgium",yes,"https://en.wikipedia.org/wiki/Bobbejaanland"
"Gulliver's Land Resort","gulliver-s-land-resort","cairn",52.0511,-0.730278,"United Kingdom",no,"https://en.wikipedia.org/wiki/Gulliver%27s_Land"
"Granada Studios Tour","granada-studios-tour","cairn",53.478333333,-2.2575,"United Kingdom",yes,"https://en.wikipedia.org/wiki/Granada_Studios_Tour"
"Gulliver's World Resort","gulliver-s-world-resort","cairn",53.406,-2.618,"United Kingdom",yes,"https://en.wikipedia.org/wiki/Gulliver%27s_World"
"Hanayashiki","hanayashiki","cairn",35.715497222,139.794688888,"Japan",yes,"https://en.wikipedia.org/wiki/Hanayashiki"
"Fantasy Island","fantasy-island","cairn",53.1914,0.347778,"United Kingdom",yes,"https://en.wikipedia.org/wiki/Fantasy_Island_(amusement_park)"
"WaterWorld","waterworld","cairn",41.7075,2.8275,"Spain",no,"https://en.wikipedia.org/wiki/Water_World_Lloret"
"Beaver Creek","beaver-creek","cairn",53.7903,-3.05556,"United Kingdom",no,"https://en.wikipedia.org/wiki/Beaver_Creek_(Blackpool_Pleasure_Beach)"
"Belle Vue Zoological Gardens","belle-vue-zoological-gardens","cairn",53.4636,-2.1875,"United Kingdom",yes,"https://en.wikipedia.org/wiki/Belle_Vue_Zoological_Gardens"
"Pombia Safari Park","pombia-safari-park","cairn",45.65,8.63333,"Italy",yes,"https://en.wikipedia.org/wiki/Pombia_Safari_Park"
"Peter Pans Playground","peter-pans-playground","cairn",50.8117,-0.3615,"United Kingdom",no,"https://en.wikipedia.org/wiki/Peter_Pan%27s_Playground"
"Heartlands (playground)","heartlands-playground","cairn",50.22273,-5.27464,"United Kingdom",no,"https://en.wikipedia.org/wiki/Heartlands_Cornwall"
"Yokohama Cosmo World","yokohama-cosmo-world","cairn",35.455203,139.636681,"Japan",yes,"https://en.wikipedia.org/wiki/Yokohama_Cosmo_World"
"PortAventura Park","portaventura-park","cairn",41.087777777,1.157777777,"Spain",yes,"https://en.wikipedia.org/wiki/PortAventura_Park"
"Barry Island Pleasure Park","barry-island-pleasure-park","cairn",51.3914,-3.2753,"United Kingdom",yes,"https://en.wikipedia.org/wiki/Barry_Island_Pleasure_Park"
"Loudoun Castle (theme park)","loudoun-castle-theme-park","cairn",55.61061,-4.37279,"United Kingdom",yes,"https://en.wikipedia.org/wiki/Loudoun_Castle_(theme_park)"
"Joyland","joyland","cairn",52.6079,1.7376,"United Kingdom",no,"https://en.wikipedia.org/wiki/Joyland_(Great_Yarmouth)"
"Rumah Katu Marine Park","rumah-katu-marine-park","cairn",-1.35888889,120.55055556,"Indonesia",yes,"https://en.wikipedia.org/wiki/Rumah_Katu_Marine_Park"
"KidZania Mumbai","kidzania-mumbai","cairn",19.0998065,72.9144114,"India",no,"https://en.wikipedia.org/wiki/KidZania_Mumbai"
"Trans Studios Samarinda","trans-studios-samarinda","cairn",-0.491,117.144,"Indonesia",no,"https://en.wikipedia.org/wiki/Trans_Studio_Samarinda"
"Energylandia","energylandia","cairn",50,19.409,"Poland",yes,"https://en.wikipedia.org/wiki/Energylandia"
"Heritage Square","heritage-square","cairn",21.196944444,72.821111111,"India",yes,"https://en.wikipedia.org/wiki/Heritage_Square_(Surat,_Gujarat)"
"Jawa Timur Park","jawa-timur-park","cairn",-7.88412,112.52491,"Indonesia",yes,"https://en.wikipedia.org/wiki/Jawa_Timur_Park"
"Yongma Land","yongma-land","cairn",37.594357213,127.105538442,"South Korea",yes,"https://en.wikipedia.org/wiki/Yongma_Land"
"Brocklands Adventure Park","brocklands-adventure-park","cairn",50.8755,-4.48785,"United Kingdom",no,"https://en.wikipedia.org/wiki/Brocklands_Adventure_Park"
"Koningin Juliana Toren","koningin-juliana-toren","cairn",52.22694,5.91583,"Netherlands",yes,"https://en.wikipedia.org/wiki/Koningin_Juliana_Toren"
"The Big Sheep","the-big-sheep","cairn",51.0157,-4.24402,"United Kingdom",no,"https://en.wikipedia.org/wiki/The_Big_Sheep"
"Worlds of Wonder","worlds-of-wonder","cairn",28.5633,77.3255,"India",yes,"https://en.wikipedia.org/wiki/Worlds_of_Wonder_(amusement_park)"
"Funland","funland","cairn",50.785,-0.985,"United Kingdom",yes,"https://en.wikipedia.org/wiki/Funland_Hayling_Island"
"Luna Park, Cairo","luna-park-cairo","cairn",30.092718,31.315358,"Egypt",no,"https://en.wikipedia.org/wiki/Luna_Park,_Cairo"
"Parc des Combes","parc-des-combes","cairn",46.8124,4.41166,"France",yes,"https://en.wikipedia.org/wiki/Parc_des_Combes"
"Southport Model Railway Village","southport-model-railway-village","cairn",53.6487,-3.0105,"United Kingdom",yes,"https://en.wikipedia.org/wiki/Southport_Model_Railway_Village"
"Dream Island","dream-island","cairn",55.6944,37.6758,"Russia",yes,"https://en.wikipedia.org/wiki/Dream_Island_(amusement_park)"
"Twinlakes Theme Park","twinlakes-theme-park","cairn",52.7835,-0.8582,"United Kingdom",yes,"https://en.wikipedia.org/wiki/Twinlakes_Theme_Park"
"GreenWood","greenwood","cairn",53.18055556,-4.19583333,"United Kingdom",no,"https://en.wikipedia.org/wiki/GreenWood"
"Funland Park","funland-park","cairn",53.517861111,49.269472222,"Russia",yes,"https://en.wikipedia.org/wiki/Funland_Park"
"Hidden Valley Discovery Park","hidden-valley-discovery-park","cairn",50.6369,-4.43533,"United Kingdom",no,"https://en.wikipedia.org/wiki/Hidden_Valley_Discovery_Park"
"Emerald Park","emerald-park","cairn",53.545377,-6.459375,"Ireland",yes,"https://en.wikipedia.org/wiki/Emerald_Park"
"Sofia Land","sofia-land","cairn",42.66777778,23.33027778,"Bulgaria",no,"https://en.wikipedia.org/wiki/Sofia_Land"
"Takakanonuma Greenland","takakanonuma-greenland","cairn",37.805,140.519166666,"Japan",no,"https://en.wikipedia.org/wiki/Takakonuma_Greenland"
"Mango Meadows","mango-meadows","cairn",9.743777777,76.472111111,"India",yes,"https://en.wikipedia.org/wiki/Mango_Meadows"
"Lost River Delta","lost-river-delta","cairn",35.626666666,139.881388888,"Japan",yes,"https://en.wikipedia.org/wiki/Lost_River_Delta_(Tokyo_DisneySea)"
"Adrenalin Quarry","adrenalin-quarry","cairn",50.417,-4.446,"United Kingdom",no,"https://en.wikipedia.org/wiki/Adrenalin_Quarry"
"High Chaparral Theme Park","high-chaparral-theme-park","cairn",57.26333333,13.82722222,"Sweden",yes,"https://en.wikipedia.org/wiki/High_Chaparral_Theme_Park"
"Camel Creek Adventure Park","camel-creek-adventure-park","cairn",50.4899485,-4.9308183,"United Kingdom",no,"https://en.wikipedia.org/wiki/Camel_Creek_Adventure_Park"
"Harbour Park","harbour-park","cairn",50.80346,-0.541323,"United Kingdom",yes,"https://en.wikipedia.org/wiki/Harbour_Park"
"Dream Park","dream-park","cairn",29.9675,31.06,"Egypt",no,"https://en.wikipedia.org/wiki/Dream_Park_(amusement_park)"
"Park of Poland","park-of-poland","cairn",51.987666666,20.458916666,"Poland",yes,"https://en.wikipedia.org/wiki/Park_of_Poland"
"Bø Sommarland","b-sommarland","cairn",59.447955555,9.072905555,"Norway",yes,"https://en.wikipedia.org/wiki/B%C3%B8_Sommarland"
"Clara Lara FunPark","clara-lara-funpark","cairn",52.973909,-6.27234,"Ireland",no,"https://en.wikipedia.org/wiki/Clara_Lara_FunPark"
"Brændesgårdshaven","br-ndesgardshaven","cairn",55.12916667,15.10361111,"Denmark",no,"https://en.wikipedia.org/wiki/Joboland"
"Gyeongju World","gyeongju-world","cairn",35.8355876,129.2806942,"South Korea",yes,"https://en.wikipedia.org/wiki/Gyeongju_World"
"Saguna Baug","saguna-baug","cairn",19.041675,73.324359,"India",yes,"https://en.wikipedia.org/wiki/Saguna_Baug"
"Šikland","sikland","cairn",49.4749,16.1674,"Czech Republic",yes,"https://en.wikipedia.org/wiki/%C5%A0ikland"
"Furuviksparken","furuviksparken","cairn",60.65138889,17.33277778,"Sweden",yes,"https://en.wikipedia.org/wiki/Furuvik_Zoo"
"Brean Leisure Park","brean-leisure-park","cairn",51.2857,-3.00966,"United Kingdom",yes,"https://en.wikipedia.org/wiki/Brean_Leisure_Park"
"Parque Mayer","parque-mayer","cairn",38.719324,-9.146378,"Portugal",yes,"https://en.wikipedia.org/wiki/Parque_Mayer,_Lisbon"
"Pharaonic Village","pharaonic-village","cairn",29.997295,31.215216,"Egypt",yes,"https://en.wikipedia.org/wiki/Pharaonic_Village"
"Alhambra Copenhagen","alhambra-copenhagen","cairn",55.6745,12.5448,"Denmark",yes,"https://en.wikipedia.org/wiki/Alhambra_Copenhagen"
"Pixieland (Dartmoor)","pixieland-dartmoor","cairn",50.546111111,-3.882222222,"United Kingdom",yes,"https://en.wikipedia.org/wiki/Pixieland_(Dartmoor)"
"Seibu-en","seibu-en","cairn",35.768306,139.442194,"Japan",yes,"https://en.wikipedia.org/wiki/Seibu-en"
"Jeju Shinhwa World","jeju-shinhwa-world","cairn",33.30645,126.3162,"South Korea",no,"https://en.wikipedia.org/wiki/Jeju_Shinhwa_World"
"Tobu Zoo","tobu-zoo","cairn",36.020083,139.719722,"Japan",yes,"https://en.wikipedia.org/wiki/Tobu_Zoo"
"Yokohama Dreamland","yokohama-dreamland","cairn",35.383,139.495,"Japan",no,"https://en.wikipedia.org/wiki/Yokohama_Dreamland"
"Woodlands Family Theme Park","woodlands-family-theme-park","cairn",50.3563,-3.67158,"United Kingdom",yes,"https://en.wikipedia.org/wiki/Woodlands_Family_Theme_Park"
"Kabe sommarland","kabe-sommarland","cairn",57.763664,14.142881,"Sweden",no,"https://en.wikipedia.org/wiki/Kabe_sommarland"
"Nickelodeon Land","nickelodeon-land","cairn",53.7903,-3.05556,"United Kingdom",yes,"https://en.wikipedia.org/wiki/Nickelodeon_Land"
"Superland","superland","cairn",31.97833333,34.74388889,"Israel",yes,"https://en.wikipedia.org/wiki/Superland"
"MGM Dizzee World","mgm-dizzee-world","cairn",12.826458,80.243647,"India",yes,"https://en.wikipedia.org/wiki/MGM_Dizzee_World"
"Misaki Park","misaki-park","cairn",34.32804167,135.16116111,"Japan",no,"https://en.wikipedia.org/wiki/Misaki_Park"
"amusement park at Prague Fairground","amusement-park-at-prague-fairground","cairn",50.109278,14.426331,"Czech Republic",yes,"https://en.wikipedia.org/wiki/Amusement_park_at_Prague_Fairground"
"M&D's","m-d-s","cairn",55.8001,-4.03966,"United Kingdom",yes,"https://en.wikipedia.org/wiki/M%26D%27s"
"Killarney Springs","killarney-springs","cairn",50.9096,-4.47736,"United Kingdom",no,"https://en.wikipedia.org/wiki/Killarney_Springs"
"Lapland New Forest","lapland-new-forest","cairn",50.809,-1.814,"United Kingdom",yes,"https://en.wikipedia.org/wiki/Lapland_New_Forest"
"Kursaal","kursaal","cairn",51.533111,0.724816,"United Kingdom",yes,"https://en.wikipedia.org/wiki/Kursaal_(amusement_park)"
"Landmark Forest Adventure Park","landmark-forest-adventure-park","cairn",57.2786,-3.812,"United Kingdom",yes,"https://en.wikipedia.org/wiki/Landmark_Forest_Adventure_Park"
"Nicco Park","nicco-park","cairn",22.57118333,88.42160833,"India",yes,"https://en.wikipedia.org/wiki/Nicco_Park"
"Kijima Kōgen Park","kijima-kogen-park","cairn",33.2644,131.427,"Japan",yes,""
"Fränkisches Wunderland","frankisches-wunderland","cairn",49.6571,11.4632,"Germany",no,""
"Drouwenerzand","drouwenerzand","cairn",52.95639,6.78806,"Netherlands",yes,""
"Kurpfalz-Park","kurpfalz-park","cairn",49.4134,8.1052,"Germany",no,""
"Rasti-Land","rasti-land","cairn",52.09611111,9.66388889,"Germany",yes,""
"Centrum Edukacji i Promocji Regionu w Szymbarku","centrum-edukacji-i-promocji-regionu-w-szymbarku","cairn",54.204738888,18.107147222,"Poland",yes,""
"Tier- und Freizeitpark Thüle","tier-und-freizeitpark-thule","cairn",52.9585,7.91912,"Germany",no,""
"Wild- und Freizeitpark Klotten","wild-und-freizeitpark-klotten","cairn",50.1606,7.165,"Germany",yes,""
"Funny-World","funny-world","cairn",48.2938,7.73238,"Germany",no,""
"Erlebnispark Schloss Thurn","erlebnispark-schloss-thurn","cairn",49.6852,10.9992,"Germany",no,""
"Traumland Bärenhöhle","traumland-barenhohle","cairn",48.3714,9.21556,"Germany",yes,""
"Avonturenpark Hellendoorn","avonturenpark-hellendoorn","cairn",52.389444,6.435833,"Netherlands",yes,""
"Steinerbos","steinerbos","cairn",50.96908,5.77459,"Netherlands",no,""
"Schloss Dankern","schloss-dankern","cairn",52.7951,7.20047,"Germany",yes,""
"Westerbouwing","westerbouwing","cairn",51.9755,5.8223,"Netherlands",yes,""
"Canevaworld","canevaworld","cairn",45.47806,10.72639,"Italy",yes,""
"Filmpark Babelsberg","filmpark-babelsberg","cairn",52.38655,13.11705,"Germany",yes,""
"Alpincenter Hamburg-Wittenburg","alpincenter-hamburg-wittenburg","cairn",53.5082,11.0938,"Germany",yes,""
"Autotron","autotron","cairn",51.68572,5.12616,"Netherlands",yes,""
"Walibi Sud-Ouest","walibi-sud-ouest","cairn",44.186878,0.576317,"France",yes,""
"DippieDoe","dippiedoe","cairn",51.499514,5.433922,"Netherlands",yes,""
"Erlebniswelt steinzeichen steinbergen","erlebniswelt-steinzeichen-steinbergen","cairn",52.2158,9.125,"Germany",no,""
"Sybrandy's Speelpark","sybrandy-s-speelpark","cairn",52.834444444,5.544444444,"Netherlands",yes,""
"MagicLand","magicland","cairn",41.76528611,12.95605833,"Italy",yes,""
"Ketteler Hof","ketteler-hof","cairn",51.7803,7.13083,"Germany",yes,""
"Bayern Park","bayern-park","cairn",48.5306,12.6356,"Germany",yes,""
"Cobac Parc","cobac-parc","cairn",48.4492,-1.83163,"France",no,""
"Maximilianpark Hamm","maximilianpark-hamm","cairn",51.6802,7.88254,"Germany",yes,""
"Eins-und-Alles Welzheim","eins-und-alles-welzheim","cairn",48.8819,9.60675,"Germany",yes,""
"Duinen Zathe Amusement Park","duinen-zathe-amusement-park","cairn",52.956624,6.335642,"Netherlands",no,""
"Fiabilandia","fiabilandia","cairn",44.035067,12.60988,"Italy",yes,""
"Speelpark Klein Zwitserland","speelpark-klein-zwitserland","cairn",51.339214,6.163877,"Netherlands",yes,""
"Bruparck","bruparck","cairn",50.895035,4.339251,"Belgium",yes,""
"Fort Fun Abenteuerland","fort-fun-abenteuerland","cairn",51.3086,8.4375,"Germany",yes,""
"Mondo Verde, Landgraaf","mondo-verde-landgraaf","cairn",50.88528,6.02861,"Netherlands",yes,""
"Schwaben Park","schwaben-park","cairn",48.9022,9.65639,"Germany",yes,""
"Cap'Découverte","cap-decouverte","cairn",44.019833,2.143972,"France",yes,""
"Plopsa Indoor Coevorden","plopsa-indoor-coevorden","cairn",52.678646,6.773883,"Netherlands",yes,""
"Kulturinsel Einsiedel","kulturinsel-einsiedel","cairn",51.29638889,15.0225,"Germany",no,""
"Fort Aventure","fort-aventure","cairn",48.5972,6.09056,"France",yes,""
"Plopsa Indoor Hasselt","plopsa-indoor-hasselt","cairn",50.934167,5.361667,"Belgium",yes,""
"Didi'Land","didi-land","cairn",48.913038,7.752748,"France",yes,""
"Mini Mundi","mini-mundi","cairn",51.480556,3.634722,"Netherlands",yes,""
"Potts park","potts-park","cairn",52.2633,8.84306,"Germany",no,""
"Monsterpark Rattelsdorf","monsterpark-rattelsdorf","cairn",50.0192,10.8922,"Germany",no,""
"Dadipark","dadipark","cairn",50.85333,3.09333,"Belgium",yes,""
"BillyBird Park Hemelrijk","billybird-park-hemelrijk","cairn",51.636996,5.672336,"Netherlands",yes,""
"Taunus Wunderland","taunus-wunderland","cairn",50.115,8.11028,"Germany",no,""
"Oud Valkeveen","oud-valkeveen","cairn",52.30544,5.19186,"Netherlands",no,""
"Freizeitpark Lochmühle","freizeitpark-lochmuhle","cairn",50.2839,8.58361,"Germany",yes,""
"Ecodrome","ecodrome","cairn",52.50417,6.07722,"Netherlands",yes,""
"Centro-Park","centro-park","cairn",51.4917,6.87667,"Germany",yes,""
"Antibes Land","antibes-land","cairn",43.612944444,7.121861111,"France",yes,""
"Kid Parc","kid-parc","cairn",44.6228,-1.10591,"France",no,""
"Jaderpark","jaderpark","cairn",53.3269,8.18833,"Germany",yes,""
"Het Land van Ooit","het-land-van-ooit","cairn",51.695278,5.168333,"Netherlands",yes,""
"Drievliet","drievliet","cairn",52.054918,4.34962,"Netherlands",yes,""
"Erlebnispark Steinau an der Straße","erlebnispark-steinau-an-der-stra-e","cairn",50.2961,9.48611,"Germany",no,""
"Plaswijckpark","plaswijckpark","cairn",51.95611,4.48139,"Netherlands",yes,""
"Churpfalzpark Loifling","churpfalzpark-loifling","cairn",49.1699,12.639,"Germany",no,""
"Linnaeushof","linnaeushof","cairn",52.32528,4.59722,"Netherlands",yes,""
"Lütge Land","lutge-land","cairn",53.653811111,7.786741666,"Germany",no,""
"Störtebeker Park","stortebeker-park","cairn",53.5625,8.1,"Germany",no,""
"Erse Park","erse-park","cairn",52.4728,10.2311,"Germany",yes,""
"Sprookjesbos Valkenburg","sprookjesbos-valkenburg","cairn",50.856916666,5.833555555,"Netherlands",yes,""
"Tolk-Schau","tolk-schau","cairn",54.5753,9.6271,"Germany",yes,""
"Aviflora","aviflora","cairn",50.934122,3.25147033,"Belgium",no,""
"Erlebnispark Ziegenhagen","erlebnispark-ziegenhagen","cairn",51.3708,9.76472,"Germany",no,""
"Traumlandpark","traumlandpark","cairn",51.62,6.9725,"Germany",yes,""
"Park Tivoli","park-tivoli","cairn",51.81722,5.925,"Netherlands",no,""
"De Waarbeek","de-waarbeek","cairn",52.24422,6.80887,"Netherlands",no,""
"Alpincenter Bottrop","alpincenter-bottrop","cairn",51.5242,6.96611,"Germany",yes,""
"Etnaland","etnaland","cairn",37.535764,14.932158,"Italy",yes,""
"Ravensburger Spieleland","ravensburger-spieleland","cairn",47.71138889,9.59527778,"Germany",yes,""
"Andersengrad","andersengrad","cairn",59.895,29.088611111,"Russia",yes,""
"Boheminium","boheminium","cairn",49.9714,12.7208,"Czech Republic",yes,""
"Tedori Fish Land","tedori-fish-land","cairn",36.459083,136.50925,"Japan",yes,""
"Brazilian Park Washuzan Highland","brazilian-park-washuzan-highland","cairn",34.446111,133.797917,"Japan",yes,""
"Musashinomura","musashinomura","cairn",36.137417,139.550444,"Japan",yes,""
"NEW REOMA WORLD","new-reoma-world","cairn",34.211983,133.878431,"Japan",yes,""
"Divo-Ostrov","divo-ostrov","cairn",59.972818,30.25338,"Russia",yes,""
"Japan Cycle Sports Center","japan-cycle-sports-center","cairn",35.00997222,139.01041667,"Japan",yes,""
"Hamanako Palpal","hamanako-palpal","cairn",34.763853,137.616708,"Japan",yes,""
"Leolandia","leolandia","cairn",45.60574,9.53864,"Italy",no,""
"Parc Saint-Paul","parc-saint-paul","cairn",49.4218,1.98122,"France",yes,""
"Tokushima Family Land","tokushima-family-land","cairn",34.013333333,134.518888888,"Japan",yes,""
"Miroku no sato","miroku-no-sato","cairn",34.42058333,133.3059444,"Japan",no,""
"Luna Park","luna-park-2","cairn",36.3953,139.063069,"Japan",yes,""
"Kejonuma Leisure Land","kejonuma-leisure-land","cairn",38.632277777,140.966444444,"Japan",yes,""
"Tochinoki Family Land","tochinoki-family-land","cairn",36.512389,139.858528,"Japan",yes,""
"Nasu Highland Park","nasu-highland-park","cairn",37.063972,139.964778,"Japan",yes,""
"Hokkaido Green Land","hokkaido-green-land","cairn",43.165833333,141.78,"Japan",yes,""
"Grinpa","grinpa","cairn",35.294353,138.784508,"Japan",yes,""
"Roadside station Ai-land Yubetsu","roadside-station-ai-land-yubetsu","cairn",44.13075,143.719222222,"Japan",yes,""
"Marina Hop","marina-hop","cairn",34.360389,132.415,"Japan",yes,""
"Mosaic Garden","mosaic-garden","cairn",34.678556,135.184944,"Japan",yes,""
"Tatilya","tatilya","cairn",41.009666666,28.659722222,"Turkey",no,""
"Hiruzen Kōgen Center","hiruzen-kogen-center","cairn",35.290889,133.635336,"Japan",yes,""
"fairground of Montjuic","fairground-of-montjuic","cairn",41.36803333,2.16553056,"Spain",no,""
"Fushimi Momoyama Castle Land","fushimi-momoyama-castle-land","cairn",34.939472222,135.776805555,"Japan",yes,""
"Mukōgaoka-Yūen Amusement Park","mukogaoka-yuen-amusement-park","cairn",35.608889,139.571944,"Japan",yes,""
"Kujukushima Pearl Sea Resort","kujukushima-pearl-sea-resort","cairn",33.16138889,129.67944444,"Japan",yes,""
"Nagoya Port Sea Train Land","nagoya-port-sea-train-land","cairn",35.093578,136.878206,"Japan",yes,""
"Città della Domenica","citta-della-domenica","cairn",43.113152777,12.343252777,"Italy",yes,""
"Mega Speelstad","mega-speelstad","cairn",51.2621,4.79506,"Belgium",no,""
"Suntopia World","suntopia-world","cairn",37.764916666,139.252833333,"Japan",yes,""
"Mirage Land","mirage-land","cairn",36.8,137.385833333,"Japan",yes,""
"Play City","play-city","cairn",40.2183,44.5574,"Armenia",no,""
"Benyland","benyland","cairn",38.246666666,140.848611111,"Japan",yes,""
"Japan Monkey Park","japan-monkey-park","cairn",35.391447,136.953908,"Japan",yes,""
"Kashii-Kaen","kashii-kaen","cairn",33.666889,130.434889,"Japan",yes,""
"Magic Park Land","magic-park-land","cairn",43.3657041,5.1876785,"France",no,""
"Papea Parc","papea-parc","cairn",48.0019,0.253611,"France",yes,""
"Adventure World Warsaw","adventure-world-warsaw","cairn",52.143523,20.582407,"Poland",no,""
"Tivoli World","tivoli-world","cairn",36.6008,-4.54059,"Spain",yes,""
"Illa Fantasia","illa-fantasia","cairn",41.50383611,2.36353056,"Spain",yes,""
"Zaragoza amusement park","zaragoza-amusement-park","cairn",41.6204,-0.900348,"Spain",yes,""
"Kiryū-ga-oka Park","kiryu-ga-oka-park","cairn",36.42372222,139.341,"Japan",yes,""
"Edenlandia","edenlandia","cairn",40.822453,14.182595,"Italy",yes,""
"Yatsu Yūen","yatsu-yuen","cairn",35.680861,140.005556,"Japan",yes,""
"Enakyo Wonderland","enakyo-wonderland","cairn",35.488119,137.405972,"Japan",yes,""
"Biwako Wanwan Oukoku","biwako-wanwan-oukoku","cairn",35.123361,135.945889,"Japan",yes,""
"Dazaifu Amusement Park","dazaifu-amusement-park","cairn",33.521139,130.536806,"Japan",yes,""
"Oltremare","oltremare","cairn",43.9887,12.6453,"Italy",yes,""
"Ben Aknoun Park","ben-aknoun-park","cairn",36.744444444,3.008333333,"Algeria",yes,""
"Parc de la Toison d'or","parc-de-la-toison-d-or","cairn",47.355113546,5.055016026,"France",yes,""
"Città Satellite","citta-satellite","cairn",45.591575,9.106876,"Italy",no,""
"Halmstad Adventure Park","halmstad-adventure-park","cairn",56.66638889,12.81722222,"Sweden",yes,""
"Sawayama Yuen","sawayama-yuen","cairn",35.274555555,136.269083333,"Japan",yes,""
"Rakutenchi","rakutenchi","cairn",33.275167,131.481333,"Japan",yes,""
"Parque de Atracciones de Vizcaya","parque-de-atracciones-de-vizcaya","cairn",43.25388889,-2.86638889,"Spain",yes,""
"Ikoma Sanjō Amusement Park","ikoma-sanjo-amusement-park","cairn",34.679556,135.678861,"Japan",yes,""
"Parc Avenue","parc-avenue","cairn",44.5431,4.36639,"France",yes,""
"Ty' Bamboo","ty-bamboo","cairn",48.5175,2.62389,"France",no,""
"Les Poussins, Parc de la Citadelle","les-poussins-parc-de-la-citadelle","cairn",50.6391,3.04864,"France",yes,""
"Lilleputthammer","lilleputthammer","cairn",61.2388,10.4391,"Norway",yes,""
"OK Corral","ok-corral","cairn",43.267886,5.729326,"France",yes,""
"Zygofolis","zygofolis","cairn",43.71222,7.20778,"France",no,""
"Marineland Catalunya","marineland-catalunya","cairn",41.660833,2.753361,"Spain",yes,""
"Manara cliff","manara-cliff","cairn",33.19575,35.558638888,"Israel",no,""
"Cardoland","cardoland","cairn",47.457936,3.669162,"France",no,""
"Accoland","accoland","cairn",26.080664,91.611119,"India",no,""
"Sochi Park","sochi-park","cairn",43.404536,39.964354,"Russia",yes,""
"Angry Birds Activity Park","angry-birds-activity-park","cairn",27.78902,-15.70999,"Spain",no,""
"Parc Spirou","parc-spirou","cairn",44.022107,4.966632,"France",no,""
"Olympia Brno","olympia-brno","cairn",49.1377,16.6332,"Czech Republic",yes,""
"Nagasaki Holland Village","nagasaki-holland-village","cairn",32.997006,129.757467,"Japan",yes,""
"Azur Park","azur-park","cairn",43.260565277,6.580147222,"France",yes,""
"Batu Night Spectacular","batu-night-spectacular","cairn",-7.896263,112.534608,"Indonesia",yes,""
"Freizeitpark Kirchhorst","freizeitpark-kirchhorst","cairn",52.45,9.925,"Germany",yes,""
"Korups Have","korups-have","cairn",55.666527777,12.522916666,"Denmark",yes,""
"Majaland Kownaty","majaland-kownaty","cairn",52.35,15.081543,"Poland",no,""
"Sommerland Syd","sommerland-syd","cairn",54.963,9.18083,"Denmark",yes,""
"Panarbora Park","panarbora-park","cairn",50.860277777,7.6075,"Germany",yes,""
"Kisarazu Ferris Wheel Park Kisarapia","kisarazu-ferris-wheel-park-kisarapia","cairn",35.438972222,139.932861111,"Japan",yes,""
"Fun Park Fyn","fun-park-fyn","cairn",55.4249,10.0407,"Denmark",yes,""
"Arakawa Amusement Park","arakawa-amusement-park","cairn",35.753611,139.758611,"Japan",yes,""
"Winnoland","winnoland","cairn",48.592222222,2.515555555,"France",yes,""
"Le Fleury","le-fleury","cairn",50.274913,3.290601,"France",yes,""
"Alhambra","alhambra","cairn",55.4852,9.46593,"Denmark",no,""
"Mola Casanova","mola-casanova","cairn",43.295174,12.332403,"Italy",no,""
"Sumaura Sanjo Amusement Park","sumaura-sanjo-amusement-park","cairn",34.641833,135.092806,"Japan",yes,""
"Vialand","vialand","cairn",41.070317,28.922099,"Turkey",yes,""
"Gagarin Park","gagarin-park","cairn",59.867763178,30.335124197,"Russia",no,""
"Attractiepark Sprookjeshof","attractiepark-sprookjeshof","cairn",53.099361,6.688528,"Netherlands",no,""
"Parc du Bocasse","parc-du-bocasse","cairn",49.6018,1.079,"France",yes,""
"Sioux Montana Ranch","sioux-montana-ranch","cairn",51.394166666,6.693333333,"Germany",no,""
"Camp Adventure","camp-adventure","cairn",55.2587,11.9802,"Denmark",yes,""
"Miranolandia","miranolandia","cairn",45.48596,12.11051,"Italy",no,""
"Peter Park","peter-park","cairn",43.866888888,12.695333333,"Italy",yes,""
"Krokodýlek","krokodylek","cairn",49.607571166,17.254356166,"Czech Republic",yes,""
"Kōriyama Culture Park","koriyama-culture-park","cairn",37.36669444,140.32886111,"Japan",yes,""
"Takamori Spring Tunnel Park","takamori-spring-tunnel-park","cairn",32.813555555,131.122694444,"Japan",yes,""
"EVP World","evp-world","cairn",13.0343,80.047,"India",no,""
"Miniature park Miniuni","miniature-park-miniuni","cairn",49.8312,18.2931,"Czech Republic",yes,""
"Irrland","irrland","cairn",51.55555556,6.20472222,"Germany",yes,""
"Centrum Eden","centrum-eden","cairn",49.515694444,16.247695277,"Czech Republic",yes,""
"Exalto","exalto","cairn",45.78549,4.896305,"France",yes,""
